city,lat,lng,country,population,predicted_population
Tokyo,35.685,139.7514,Japan,35676000,35675536.19819907
New York,40.6943,-73.9249,United States,19354922,19356835.81247829
Mexico City,19.4424,-99.131,Mexico,19028000,19030077.758579597
Mumbai,19.017,72.857,India,18978000,18977650.896248873
São Paulo,-23.5587,-46.625,Brazil,18845000,18845522.238114323
Delhi,28.67,77.23,India,15926000,15924017.533908192
Shanghai,31.2165,121.4365,China,14987000,14987002.903873194
Kolkata,22.495,88.3247,India,14787000,14788472.472160818
Los Angeles,34.1139,-118.4068,United States,12815475,12814914.914922073
Dhaka,23.7231,90.4086,Bangladesh,12797394,12798168.730513848
Buenos Aires,-34.6025,-58.3975,Argentina,12795000,12796320.682323946
Karachi,24.87,66.99,Pakistan,12130000,12131227.356294123
Cairo,30.05,31.25,Egypt,11893000,11894180.186532618
Rio de Janeiro,-22.925,-43.225,Brazil,11748000,11746854.59180207
Ōsaka,34.75,135.4601,Japan,11294000,11294325.021893509
Beijing,39.9289,116.3883,China,11106000,11105398.429012556
Manila,14.6042,120.9822,Philippines,11100000,11100161.795456408
Moscow,55.7522,37.6155,Russia,10452000,10451265.288826404
Istanbul,41.105,29.01,Turkey,10061000,10061027.027129728
Paris,48.8667,2.3333,France,9904000,9906182.587709675
Seoul,37.5663,126.9997,"Korea, South",9796000,9796719.540634776
Lagos,6.4433,3.3915,Nigeria,9466000,9464995.678529393
Jakarta,-6.1744,106.8294,Indonesia,9125000,9124791.712759428
Guangzhou,23.145,113.325,China,8829000,8829227.696029656
Chicago,41.8373,-87.6861,United States,8675982,8676397.411194256
London,51.5,-0.1167,United Kingdom,8567000,8567415.861850059
Lima,-12.048,-77.0501,Peru,8012000,8012470.295641271
Tehran,35.6719,51.4243,Iran,7873000,7872701.597811022
Kinshasa,-4.3297,15.315,Congo (Kinshasa),7843000,7843112.551834592
Bogota,4.5964,-74.0833,Colombia,7772000,7772177.68613245
Shenzhen,22.5524,114.1221,China,7581000,7580954.834646132
Wuhan,30.58,114.27,China,7243000,7242387.639717308
Hong Kong,22.305,114.185,Hong Kong,7206000,7207531.294684924
Tianjin,39.13,117.2,China,7180000,7179098.354926896
Chennai,13.09,80.28,India,7163000,7164582.682296571
Taipei,25.0358,121.5683,Taiwan,6900273,6900689.678900925
Bangalore,12.97,77.56,India,6787000,6787758.681814533
Bangkok,13.75,100.5166,Thailand,6704000,6704183.822906945
Lahore,31.56,74.35,Pakistan,6577000,6574825.246432095
Chongqing,29.565,106.595,China,6461000,6459240.651951108
Miami,25.784,-80.2102,United States,6381966,6382782.288319373
Hyderabad,17.4,78.48,India,6376000,6376230.438436256
Dallas,32.7937,-96.7662,United States,5733259,5735174.160694048
Santiago,-33.45,-70.667,Chile,5720000,5719588.989810707
Philadelphia,40.0076,-75.134,United States,5637884,5638149.123106631
Belo Horizonte,-19.915,-43.915,Brazil,5575000,5575045.640224101
Madrid,40.4,-3.6834,Spain,5567000,5567831.510027981
Houston,29.7868,-95.3905,United States,5446468,5445402.050156382
Ahmedabad,23.0301,72.58,India,5375000,5374251.340611664
Ho Chi Minh City,10.78,106.695,Vietnam,5314000,5313707.407475824
Washington,38.9047,-77.0163,United States,5289420,5288388.375696878
Atlanta,33.7626,-84.4228,United States,5228750,5228022.207078276
Toronto,43.7,-79.42,Canada,5213000,5212082.057252007
Singapore,1.293,103.8558,Singapore,5183700,5184138.463634238
Luanda,-8.8383,13.2344,Angola,5172900,5172205.82122057
Baghdad,33.3386,44.3939,Iraq,5054000,5054220.955648033
Barcelona,41.3833,2.1834,Spain,4920000,4918819.312506392
Haora,22.5804,88.3299,India,4841638,4841000.369444483
Shenyeng,41.805,123.45,China,4787000,4788379.670219868
Khartoum,15.5881,32.5342,Sudan,4754000,4753523.661316847
Pune,18.53,73.85,India,4672000,4670619.373519963
Boston,42.3188,-71.0846,United States,4637537,4638563.507618676
Sydney,-33.92,151.1852,Australia,4630000,4629440.010810719
St. Petersburg,59.939,30.316,Russia,4553000,4553113.300980519
Chittagong,22.33,91.8,Bangladesh,4529000,4528609.470095252
Dongguan,23.0489,113.7447,China,4528000,4528070.165299429
Riyadh,24.6408,46.7727,Saudi Arabia,4465000,4466572.688284461
Hanoi,21.0333,105.85,Vietnam,4378000,4377642.389473102
Guadalajara,20.67,-103.33,Mexico,4198000,4198481.872254046
Melbourne,-37.82,144.975,Australia,4170000,4170373.669660549
Alexandria,31.2,29.95,Egypt,4165000,4163233.8992478633
Chengdu,30.67,104.07,China,4123000,4121787.501372488
Rangoon,16.7834,96.1667,Burma,4088000,4087583.952290009
Phoenix,33.5722,-112.0891,United States,4081849,4080040.105092839
Xian,34.275,108.895,China,4009000,4008781.3141579144
Porto Alegre,-30.05,-51.2,Brazil,3917000,3916715.7572387354
Surat,21.2,72.84,India,3842000,3844815.8149345554
Hechi,23.0965,109.6091,China,3830000,3830144.461558876
Abidjan,5.32,-4.04,Côte D’Ivoire,3802000,3802302.9019581387
Brasília,-15.7833,-47.9161,Brazil,3716996,3717044.5589736276
Ankara,39.9272,32.8644,Turkey,3716000,3715974.037922245
Monterrey,25.67,-100.33,Mexico,3712000,3709594.068553134
Yokohama,35.32,139.58,Japan,3697894,3697690.73266225
Nanjing,32.05,118.78,China,3679000,3680232.0787480627
Montréal,45.5,-73.5833,Canada,3678000,3677028.0914348676
Guiyang,26.58,106.72,China,3662000,3662573.7590503288
Recife,-8.0756,-34.9156,Brazil,3651000,3652557.834462171
Seattle,47.6211,-122.3244,United States,3643765,3644351.2958415183
Harbin,45.75,126.65,China,3621000,3623201.3282210235
San Francisco,37.7562,-122.443,United States,3603761,3603482.672809346
Fortaleza,-3.75,-38.58,Brazil,3602319,3600851.0036743344
Zhangzhou,24.5204,117.67,China,3531147,3530890.0365548288
Detroit,42.3834,-83.1024,United States,3522206,3520842.3799836515
Salvador,-12.97,-38.48,Brazil,3484000,3483995.5698038707
Busan,35.0951,129.01,"Korea, South",3480000,3479228.8792177164
Johannesburg,-26.17,28.03,South Africa,3435000,3433336.2725621564
Berlin,52.5218,13.4015,Germany,3406000,3407231.507322979
Algiers,36.7631,3.0506,Algeria,3354000,3355630.3113242057
Rome,41.896,12.4833,Italy,3339000,3337888.7255516835
Pyongyang,39.0194,125.7547,"Korea, North",3300000,3297632.8826760817
Medellín,6.275,-75.575,Colombia,3297000,3299089.9535281453
Kabul,34.5167,69.1833,Afghanistan,3277000,3275674.0909380517
Athens,37.9833,23.7333,Greece,3242000,3242430.6157232383
Nagoya,35.155,136.915,Japan,3230000,3229739.3203925746
Cape Town,-33.92,18.435,South Africa,3215000,3216987.0984235564
San Diego,32.8312,-117.1226,United States,3210314,3209634.975346269
Changchun,43.865,125.34,China,3183000,3183476.733803624
Casablanca,33.6,-7.6164,Morocco,3181000,3181981.0252757114
Dalian,38.9228,121.6298,China,3167000,3168038.3816460245
Kanpur,26.46,80.32,India,3162000,3162305.71281251
Kano,12,8.52,Nigeria,3140000,3140682.1224622442
Tel Aviv-Yafo,32.08,34.77,Israel,3112000,3112093.9633968053
Addis Ababa,9.0333,38.7,Ethiopia,3100000,3099121.858501812
Curitiba,-25.42,-49.32,Brazil,3084000,3085244.402035416
Zibo,36.8,118.05,China,3061000,3061161.704148095
Jeddah,21.5169,39.2192,Saudi Arabia,3012000,3013006.4417054863
Nairobi,-1.2833,36.8167,Kenya,3010000,3007684.6739597367
Hangzhou,30.25,120.17,China,3007000,3006795.6460116957
Benoni,-26.1496,28.3299,South Africa,2986000,2985845.2590823206
Caracas,10.501,-66.917,Venezuela,2985000,2983999.8589615608
Milan,45.47,9.205,Italy,2945000,2945113.709181297
Stuttgart,48.78,9.2,Germany,2944700,2946277.391774425
Kunming,25.07,102.68,China,2931000,2932259.2621948826
Dar es Salaam,-6.8,39.2683,Tanzania,2930000,2931291.76303638
Minneapolis,44.9635,-93.2678,United States,2926757,2926440.9647300816
Jaipur,26.9211,75.81,India,2917000,2916662.9069583886
Taiyuan,37.875,112.5451,China,2913000,2913660.873938513
Frankfurt,50.1,8.675,Germany,2895000,2895202.0036438857
Qingdao,36.09,120.33,China,2866000,2866329.949405875
Surabaya,-7.2492,112.7508,Indonesia,2845000,2845558.917005619
Lisbon,38.7227,-9.1449,Portugal,2812000,2811303.1452956004
Tampa,27.9937,-82.4454,United States,2804240,2804066.7452713214
Jinan,36.675,116.995,China,2798000,2797578.569491626
Fukuoka,33.595,130.41,Japan,2792000,2792469.156382351
Campinas,-22.9,-47.1,Brazil,2791000,2792336.2615866684
Denver,39.7621,-104.8759,United States,2787266,2787290.3659805786
Kaohsiung,22.6333,120.2666,Taiwan,2769072,2769358.0615734938
Quezon City,14.6504,121.03,Philippines,2761720,2761503.998574873
Katowice,50.2604,19.02,Poland,2746000,2744862.2289306507
Aleppo,36.23,37.17,Syria,2738000,2737407.3343475102
Durban,-29.865,30.98,South Africa,2729000,2729361.094536071
Kiev,50.4334,30.5166,Ukraine,2709000,2710438.860264544
Lucknow,26.855,80.915,India,2695000,2693896.7761193966
El Giza,30.01,31.19,Egypt,2681863,2681860.8705325164
Zhengzhou,34.755,113.6651,China,2636000,2634179.093915706
Taichung,24.1521,120.6817,Taiwan,2629323,2628097.874675631
Brooklyn,40.6501,-73.9496,United States,2629150,2629353.1122866366
Ibadan,7.38,3.93,Nigeria,2628000,2626905.4167332603
Faisalabad,31.41,73.11,Pakistan,2617000,2617778.768964126
Fuzhou,26.08,119.3,China,2606000,2608076.232786125
Dakar,14.7158,-17.4731,Senegal,2604000,2605280.6751244925
Changsha,28.2,112.97,China,2604000,2604940.03573737
İzmir,38.4361,27.1518,Turkey,2587000,2587684.0418339423
Xiangtan,27.8504,112.9,China,2586948,2588007.657853054
Lanzhou,36.056,103.792,China,2561000,2560757.3475678028
Incheon,37.4761,126.6422,"Korea, South",2550000,2550799.9513008217
Sapporo,43.075,141.34,Japan,2544000,2543204.6239737496
Xiamen,24.45,118.08,China,2519000,2517560.036443923
Guayaquil,-2.22,-79.92,Ecuador,2514000,2516136.5533171683
George Town,5.4136,100.3294,Malaysia,2500000,2499976.26945089
Mashhad,36.27,59.57,Iran,2469000,2469117.9834827296
Damascus,33.5,36.3,Syria,2466000,2466708.611005475
Daegu,35.8668,128.607,"Korea, South",2460000,2460065.7221324523
Nagpur,21.17,79.09,India,2454000,2453213.5689554345
Jinxi,40.7503,120.83,China,2426000,2426226.656197199
Shijianzhuang,38.05,114.48,China,2417000,2417185.5232286886
Tunis,36.8028,10.1797,Tunisia,2412500,2414247.9565411946
Vienna,48.2,16.3666,Austria,2400000,2398613.3731343145
Jilin,43.85,126.55,China,2396000,2395081.1776356674
Omdurman,15.6167,32.48,Sudan,2395159,2393968.9850591193
Bandung,-6.95,107.57,Indonesia,2394000,2395756.0994932256
Bekasi,-6.2173,106.9723,Indonesia,2378211,2377346.3610786432
Mannheim,49.5004,8.47,Germany,2362000,2361178.9493662594
Nanchang,28.68,115.88,China,2350000,2350950.8345492
Wenzhou,28.02,120.6501,China,2350000,2348748.747391125
Queens,40.7498,-73.7976,United States,2333054,2332366.6981568397
Vancouver,49.2734,-123.1216,Canada,2313328,2312888.656347632
Birmingham,52.475,-1.92,United Kingdom,2285000,2284155.4207594725
Cali,3.4,-76.5,Colombia,2254000,2253005.550501788
Naples,40.84,14.245,Italy,2250000,2251177.2054627175
Sendai,38.2871,141.0217,Japan,2250000,2249795.7429723423
Manchester,53.5004,-2.248,United Kingdom,2230000,2230167.682567602
Puebla,19.05,-98.2,Mexico,2195000,2195034.43252839
Tripoli,32.8925,13.18,Libya,2189000,2187642.198455104
Tashkent,41.3117,69.2949,Uzbekistan,2184000,2184639.3706322913
Nanchong,30.7804,106.13,China,2174000,2173596.290102207
Havana,23.132,-82.3642,Cuba,2174000,2175132.500392084
Baltimore,39.3051,-76.6144,United States,2170504,2169810.186018869
Belém,-1.45,-48.48,Brazil,2167000,2166482.022034415
Nanning,22.82,108.32,China,2167000,2168882.4143049275
Patna,25.625,85.13,India,2158000,2158228.565992986
Santo Domingo,18.4701,-69.9001,Dominican Republic,2154000,2154198.2679973296
Ürümqi,43.805,87.575,China,2151000,2151062.9065033514
Zaozhuang,34.88,117.57,China,2145000,2145742.592523627
Baku,40.3953,49.8622,Azerbaijan,2122300,2123896.0738080624
Accra,5.55,-0.2167,Ghana,2121000,2120410.4437218364
Yantai,37.5304,121.4,China,2116000,2114770.528465687
Medan,3.58,98.65,Indonesia,2115000,2115150.6410078243
Santa Cruz,-17.7539,-63.226,Bolivia,2102998,2102679.3823569
Xuzhou,34.28,117.18,China,2091000,2091438.831496744
Riverside,33.9381,-117.3948,United States,2084749,2085483.3843905742
Linyi,35.08,118.33,China,2082000,2082109.008041816
Saint Louis,38.6358,-90.2451,United States,2078283,2078972.6029812866
Las Vegas,36.2291,-115.2607,United States,2073045,2071699.821030834
Maracaibo,10.73,-71.66,Venezuela,2072000,2073808.161496197
Kuwait,29.3697,47.9783,Kuwait,2063000,2062246.5162939213
Ad Damman,26.4282,50.0997,Saudi Arabia,2054710,2053882.4959248563
Portland,45.5372,-122.65,United States,2052796,2051227.019435151
Haikou,20.05,110.32,China,2046189,2045853.6830611045
Hiroshima,34.3878,132.4429,Japan,2045000,2044873.145464337
Baotou,40.6522,109.822,China,2036000,2035653.0738249514
Hefei,31.85,117.28,China,2035000,2035920.5077791896
Indore,22.7151,75.865,India,2026000,2027634.4755424745
Goiânia,-16.72,-49.3,Brazil,2022000,2022642.143908191
Sanaa,15.3547,44.2066,Yemen,2008000,2007927.173311633
San Antonio,29.4722,-98.5247,United States,2002530,2003960.779628485
Port-au-Prince,18.541,-72.336,Haiti,1998000,1997539.2641509378
Haiphong,20.83,106.6801,Vietnam,1969000,1969197.0955372779
Suzhou,33.6361,116.9789,China,1964000,1962544.4092129082
Nanyang,33.0004,112.53,China,1944000,1944992.1935676704
Bucharest,44.4334,26.0999,Romania,1942000,1941959.817201098
Ningbo,29.88,121.55,China,1923000,1922737.9379819476
Douala,4.0604,9.71,Cameroon,1906000,1905966.368892003
Tangshan,39.6243,118.1944,China,1879000,1878867.0411074457
Tainan,23,120.2,Taiwan,1876312,1874595.7563315334
Datong,40.08,113.3,China,1873000,1872802.7386983966
Asunción,-25.2964,-57.6415,Paraguay,1870000,1870872.136027188
Saidu,34.75,72.35,Pakistan,1860310,1860978.6350938175
Brisbane,-27.455,153.0351,Australia,1860000,1860446.6226397085
Rawalpindi,33.6,73.04,Pakistan,1858000,1859151.7596856798
Sacramento,38.5667,-121.4683,United States,1854698,1855722.1551849684
Beirut,33.872,35.5097,Lebanon,1846000,1846872.6718082635
San Jose,37.3018,-121.8485,United States,1821899,1822027.2108360708
Minsk,53.9,27.5666,Belarus,1805000,1805971.9379695111
Kyoto,35.03,135.75,Japan,1805000,1805316.6946911358
Barranquilla,10.96,-74.8,Colombia,1798000,1796741.2454958474
Orlando,28.4788,-81.342,United States,1776841,1776894.0257328365
Valencia,10.23,-67.98,Venezuela,1770000,1770812.3418587772
Shuyang,34.1299,118.7734,China,1770000,1769455.50998106
Hamburg,53.55,10,Germany,1757000,1754426.4226780124
Vadodara,22.31,73.18,India,1756000,1756626.6161338466
Manaus,-3.1,-60,Brazil,1753000,1754101.0840529038
Shangqiu,34.4504,115.65,China,1753000,1752430.6406124602
Wuxi,31.58,120.3,China,1749000,1750641.5199173482
Palembang,-2.98,104.75,Indonesia,1749000,1750156.8525255537
Brussels,50.8333,4.3333,Belgium,1743000,1742396.5359687214
Essen,51.45,7.0166,Germany,1742135,1739452.4115651317
Cleveland,41.4767,-81.6805,United States,1730363,1730961.7573673318
Bhopal,23.25,77.41,India,1727000,1726741.1758627216
Hohhot,40.82,111.66,China,1726000,1725268.8743057395
Pittsburgh,40.4396,-79.9763,United States,1715297,1716085.5014866448
Luoyang,34.68,112.4701,China,1715000,1714395.4203559407
Santos,-23.9537,-46.3329,Brazil,1709000,1709730.7820652379
Jianmen,30.6501,113.16,China,1708000,1708449.8334289356
Warsaw,52.25,21,Poland,1707000,1707560.6714567726
Rabat,34.0253,-6.8361,Morocco,1705000,1704434.400428125
Vitória,-20.324,-40.366,Brazil,1704000,1703873.8706175485
Quito,-0.215,-78.5001,Ecuador,1701000,1699308.5807420658
Antananarivo,-18.9166,47.5166,Madagascar,1697000,1693928.7932196644
Coimbatore,11,76.95,India,1696000,1697832.237303492
Daqing,46.58,125,China,1693000,1691975.0527333508
Luan,31.7503,116.48,China,1690000,1689506.6852643755
Wanzhou,30.82,108.4,China,1680000,1678367.0685913693
Budapest,47.5,19.0833,Hungary,1679000,1677450.1233220296
Turin,45.0704,7.67,Italy,1652000,1651928.6994297085
Suzhou,31.3005,120.62,China,1650000,1647291.9959650931
Ludhiana,30.9278,75.8723,India,1649000,1650498.3934671618
Cincinnati,39.1412,-84.5059,United States,1648254,1649144.0957719074
Kumasi,6.69,-1.63,Ghana,1646000,1645076.6508933974
Manhattan,40.7834,-73.9662,United States,1643734,1643406.08189526
Qiqihar,47.345,123.99,China,1641000,1640920.320927025
Anshan,41.115,122.94,China,1639000,1638820.7701027407
Austin,30.3006,-97.7517,United States,1638716,1637200.6699626462
Zhongli,24.965,121.2168,Taiwan,1632616,1632312.9627184425
Handan,36.58,114.48,China,1631000,1631598.8360384346
Taian,36.2,117.1201,China,1629000,1627171.3701035061
Isfahan,32.7,51.7,Iran,1628000,1629845.7612790829
Kansas City,39.1239,-94.5541,United States,1615621,1614176.0276405462
Yaounde,3.8667,11.5167,Cameroon,1611000,1611971.411805955
Shantou,23.37,116.67,China,1601000,1601950.6007571653
Agra,27.1704,78.015,India,1592000,1590361.2953441758
La Paz,-16.498,-68.15,Bolivia,1590000,1591077.2003607403
Zhanjiang,21.2,110.38,China,1590000,1588868.622546454
Kalyan,19.2502,73.1602,India,1576614,1577658.9358493474
Abuja,9.0833,7.5333,Nigeria,1576000,1575236.3485766544
Harare,-17.8178,31.0447,Zimbabwe,1572000,1571784.7386776805
Indianapolis,39.7771,-86.1458,United States,1564699,1565080.0337990727
Xiantao,30.3704,113.44,China,1556000,1555799.6467736529
Tijuana,32.5,-117.08,Mexico,1553000,1552633.7027233753
Khulna,22.84,89.56,Bangladesh,1553000,1552955.7248775098
Weifang,36.7204,119.1001,China,1553000,1552547.180586716
Santiago,19.5,-70.67,Dominican Republic,1550753,1552002.4672047077
Xinyang,32.1304,114.07,China,1541000,1539441.839986314
Luzhou,28.88,105.38,China,1537000,1536233.5633601479
Perth,-31.955,115.84,Australia,1532000,1533189.483389951
Toluca,19.3304,-99.67,Mexico,1531000,1530261.9105071588
Leeds,53.83,-1.58,United Kingdom,1529000,1528184.2747079046
Vishakhapatnam,17.73,83.305,India,1529000,1528104.8839730262
Kōbe,34.68,135.17,Japan,1528478,1529513.055186677
Columbus,39.986,-82.9852,United States,1528314,1529907.525019239
Multan,30.2,71.455,Pakistan,1522000,1522278.0037783263
Kochi,10.015,76.2239,India,1519000,1519578.3005392342
Gujranwala,32.1604,74.185,Pakistan,1513000,1511134.7687482184
Montevideo,-34.858,-56.1711,Uruguay,1513000,1514191.0916171703
Niterói,-22.9,-43.1,Brazil,1500513,1500910.4361606045
Ganzhou,25.92,114.95,China,1500000,1499313.0937941151
Florence,43.78,11.25,Italy,1500000,1499576.9275250002
Liuzhou,24.28,109.25,China,1497000,1497754.9225627356
Bamako,12.65,-8,Mali,1494000,1494226.275658002
Conakry,9.5315,-13.6802,Guinea,1494000,1494111.6911196932
Bursa,40.2,29.07,Turkey,1492000,1491925.0495476746
León,21.15,-101.7,Mexico,1488000,1488602.9711167063
Virginia Beach,36.7335,-76.0435,United States,1480383,1482323.889461939
Nasik,20.0004,73.78,India,1473000,1471221.8824687414
Fushun,41.8654,123.87,China,1470000,1470582.461678768
Changde,29.03,111.68,China,1469000,1469366.46147617
Daejeon,36.3355,127.425,"Korea, South",1468000,1468106.2497902978
Charlotte,35.2079,-80.8303,United States,1467362,1464960.402837886
Neijiang,29.5804,105.05,China,1466000,1465936.456220619
Phnom Penh,11.55,104.9166,Cambodia,1466000,1465400.3482102659
Quanzhou,24.9,118.58,China,1463000,1462481.7666225412
Kharkiv,50,36.25,Ukraine,1461000,1459587.9035820283
Hyderabad,25.38,68.375,Pakistan,1459000,1459300.712000011
Bronx,40.8501,-73.8662,United States,1455720,1457599.3083316472
Lomé,6.1319,1.2228,Togo,1452000,1452975.1466385273
Córdoba,-31.4,-64.1823,Argentina,1452000,1450823.064148433
Huainan,32.63,116.98,China,1451000,1452912.3501303706
Doha,25.2866,51.533,Qatar,1450000,1451425.5695497377
Kuala Lumpur,3.1667,101.7,Malaysia,1448000,1447105.8820407642
Maputo,-25.9553,32.5892,Mozambique,1446000,1445623.5481366357
Kaduna,10.52,7.44,Nigeria,1442000,1440639.7300879448
Gwangju,35.171,126.9104,"Korea, South",1440000,1440666.0963722658
Kawasaki,35.53,139.705,Japan,1437266,1437753.8432900598
San Salvador,13.71,-89.203,El Salvador,1433000,1432921.469997747
Suining,30.5333,105.5333,China,1425000,1423341.0819917384
Lyon,45.77,4.83,France,1423000,1422248.7705543693
Karaj,35.8004,50.97,Iran,1423000,1423798.6135497727
Kampala,0.3167,32.5833,Uganda,1420000,1418753.6463636926
Tabriz,38.0863,46.3012,Iran,1413000,1413328.5751971204
The Hague,52.08,4.27,Netherlands,1406000,1406665.5073364775
Davao,7.11,125.63,Philippines,1402000,1401318.2792187214
Marseille,43.29,5.375,France,1400000,1400888.370826669
Meerut,29.0004,77.7,India,1398000,1395491.7468823947
Mianyang,31.47,104.77,China,1396000,1394950.9371802968
Semarang,-6.9666,110.42,Indonesia,1396000,1396035.6250118378
Faridabad,28.4333,77.3167,India,1394000,1394370.6494854202
Novosibirsk,55.03,82.96,Russia,1389000,1390701.7338179708
Makkah,21.43,39.82,Saudi Arabia,1385000,1385671.580707967
Dubai,25.23,55.28,United Arab Emirates,1379000,1378333.510287626
Milwaukee,43.064,-87.9669,United States,1377808,1377818.2871919977
Auckland,-36.8481,174.763,New Zealand,1377200,1377422.3042729958
Maanshan,31.7304,118.48,China,1366302,1365507.0912371795
Brazzaville,-4.2592,15.2847,Congo (Brazzaville),1355000,1356742.0554497198
Lubumbashi,-11.68,27.48,Congo (Kinshasa),1352000,1352988.9524996015
Yiyang,28.6004,112.33,China,1352000,1352934.448657862
Varanasi,25.33,83,India,1352000,1351589.2485759316
Ciudad Juárez,31.6904,-106.49,Mexico,1343000,1341988.3408637154
Ghaziabad,28.6604,77.4084,India,1341000,1341832.0987706054
Pretoria,-25.7069,28.2294,South Africa,1338000,1339045.6075805372
Heze,35.23,115.45,China,1338000,1339351.9398487813
Porto,41.15,-8.62,Portugal,1337000,1337837.5841329366
Lusaka,-15.4166,28.2833,Zambia,1328000,1327309.837240386
Asansol,23.6833,86.9833,India,1328000,1328828.4518872355
Changzhou,31.78,119.97,China,1327000,1328347.865562985
Mosul,36.345,43.145,Iraq,1316000,1316863.3282659382
Yekaterinburg,56.85,60.6,Russia,1313000,1312652.159069308
Peshawar,34.005,71.535,Pakistan,1303000,1303249.4240043862
Mandalay,21.97,96.085,Burma,1300000,1299815.3592945258
Jamshedpur,22.7875,86.1975,India,1300000,1299423.4718525882
Mbuji-Mayi,-6.15,23.6,Congo (Kinshasa),1295000,1296066.6782511505
Madurai,9.92,78.12,India,1294000,1294399.7132536662
Adana,36.995,35.32,Turkey,1293000,1292179.903346568
Sheffield,53.3667,-1.5,United Kingdom,1292900,1295387.2788546323
Jabalpur,23.1751,79.9551,India,1285000,1285561.7035477557
San José,9.935,-84.0841,Costa Rica,1284000,1283987.691861834
Panama City,8.968,-79.533,Panama,1281000,1282172.2153278796
Nizhny Novgorod,56.333,44.0001,Russia,1278000,1277416.6875699325
Chifeng,42.27,118.95,China,1277000,1277245.9861679354
Duisburg,51.43,6.75,Germany,1276757,1277949.6971132231
Munich,48.1299,11.575,Germany,1275000,1276532.251486258
Stockholm,59.3508,18.0973,Sweden,1264000,1264391.8299516165
Huaiyin,33.58,119.03,China,1264000,1264448.7109790614
Ujungpandang,-5.14,119.432,Indonesia,1262000,1261414.3912043131
Rajkot,22.31,70.8,India,1260000,1258542.3433141417
Dhanbad,23.8004,86.42,India,1246000,1246138.1575131742
Mudangiang,44.575,129.59,China,1244000,1244566.694969884
Geneva,46.21,6.14,Switzerland,1240000,1239191.7828198008
Shiraz,29.63,52.57,Iran,1240000,1240321.4779655247
Huzhou,30.8704,120.1,China,1231000,1230102.5112261246
Tianshui,34.6,105.92,China,1225000,1224673.109727639
Lupanshui,26.5944,104.8333,China,1221000,1219293.1622777053
Düsseldorf,51.2204,6.78,Germany,1220000,1218175.907329648
Maoming,21.9204,110.87,China,1217715,1220871.942467294
Seville,37.405,-5.98,Spain,1212045,1210785.09761684
Amritsar,31.64,74.87,India,1212000,1212599.649757084
Vila Velha,-20.3676,-40.318,Brazil,1209091,1209934.5411755282
Vila Velha,3.2167,-51.2167,Brazil,1209091,1208663.4674364857
Almaty,43.325,76.915,Kazakhstan,1209000,1208599.6284631193
Providence,41.8229,-71.4186,United States,1206642,1206658.7798019145
Warangal,18.01,79.58,India,1203853,1203449.2171327495
Rosario,-32.9511,-60.6663,Argentina,1203000,1204209.7075547697
Allahabad,25.455,81.84,India,1201000,1200739.4647615463
Benin City,6.3405,5.62,Nigeria,1190000,1190110.6585797772
Maceió,-9.62,-35.73,Brazil,1186000,1185783.9951242497
Jining,35.4004,116.55,China,1186000,1186910.9182877233
Sofia,42.6833,23.3167,Bulgaria,1185000,1186277.40094884
Abbottabad,34.1495,73.1995,Pakistan,1183647,1183022.8702127729
Banghazi,32.1167,20.0667,Libya,1180000,1179428.3352126882
Cilacap,-7.7188,109.0154,Indonesia,1174964,1174544.0226319788
Prague,50.0833,14.466,Czechia,1162000,1162765.99956786
Glasgow,55.8744,-4.2507,United Kingdom,1160000,1158726.6990365218
Leshan,29.5671,103.7333,China,1157000,1156520.5453879845
Jacksonville,30.3322,-81.6749,United States,1156291,1155793.732253581
Ouagadougou,12.3703,-1.5247,Burkina Faso,1149000,1149351.1750770153
Adelaide,-34.935,138.6,Australia,1145000,1145328.956846093
Ottawa,45.4167,-75.7,Canada,1145000,1143860.8907328655
Shangrao,28.4704,117.97,China,1144577,1143175.833489703
Torreón,25.5701,-103.42,Mexico,1144000,1145845.6831209732
Srinagar,34.1,74.815,India,1140000,1139643.5087407287
Samara,53.195,50.1513,Russia,1137000,1136165.1968729577
Vijayawada,16.52,80.63,India,1137000,1135253.964985799
Omsk,54.99,73.4,Russia,1135000,1133554.988936942
Newcastle,-32.8453,151.815,Australia,1134616,1134634.042295094
Yulin,22.63,110.15,China,1127000,1125624.9397426294
Nampo,38.7669,125.4524,"Korea, North",1127000,1126949.7298382402
Xianyang,34.3456,108.7147,China,1126000,1126458.6651220145
Cagayan de Oro,8.4508,124.6853,Philippines,1121561,1120468.5972975097
Can Tho,10.05,105.77,Vietnam,1121000,1120624.2459517336
Barquisimeto,10.05,-69.3,Venezuela,1116000,1115953.7610320402
Kazan,55.7499,49.1263,Russia,1115000,1114265.0478999065
Helsinki,60.1756,24.9341,Finland,1115000,1115158.5493496202
Aurangabad,19.8957,75.3203,India,1113000,1112669.541669288
Calgary,51.083,-114.08,Canada,1110000,1108622.0215749387
Nezahualcoyotl,19.41,-99.03,Mexico,1109363,1110371.7966340086
Zürich,47.38,8.55,Switzerland,1108000,1107914.796911225
Baoding,38.8704,115.48,China,1107000,1106757.6970729358
Zigong,29.4,104.78,China,1105000,1105362.1917062795
Sharjah,25.3714,55.4065,United Arab Emirates,1103027,1102890.7657612094
Yerevan,40.1812,44.5136,Armenia,1102000,1101047.6145683688
Mogadishu,2.0667,45.3667,Somalia,1100000,1099084.2402608118
Huambo,-12.75,15.76,Angola,1100000,1099982.7263722827
Ankang,32.68,109.02,China,1100000,1099925.9393005997
Tbilisi,41.725,44.7908,Georgia,1100000,1099614.842522727
Ikare,7.5304,5.76,Nigeria,1099931,1099140.0649577738
Belgrade,44.8186,20.468,Serbia,1099000,1098490.01783531
Salt Lake City,40.7774,-111.9301,United States,1098400,1097524.8405675057
Bhilai,21.2167,81.4333,India,1097000,1096311.20569273
Jinhua,29.12,119.65,China,1092852,1093912.3274628704
Chelyabinsk,55.155,61.4387,Russia,1091000,1089352.2681230917
Natal,-5.78,-35.24,Brazil,1088000,1088487.3443126788
Dushanbe,38.56,68.7739,Tajikistan,1086244,1086834.105984001
København,55.6786,12.5635,Denmark,1085000,1084423.1323100554
Changwon,35.2191,128.5836,"Korea, South",1081499,1082826.4958182895
Zhuzhou,27.83,113.15,China,1080000,1079583.5562273704
Suwon,37.2578,127.0109,"Korea, South",1078000,1077809.8957659008
Nashville,36.1714,-86.7844,United States,1076645,1075992.8339355474
Vereeniging,-26.6496,27.96,South Africa,1074000,1073977.604653293
Xiangfan,32.02,112.13,China,1069000,1068478.5900242298
Memphis,35.1047,-89.9773,United States,1068873,1068767.6581225297
Ulsan,35.5467,129.317,"Korea, South",1061000,1060648.9510114824
Zhucheng,35.99,119.3801,China,1060000,1059102.9381494708
Amman,31.95,35.9333,Jordan,1060000,1060480.8569027355
Richmond,37.5295,-77.4756,United States,1059907,1060066.1722522469
Dublin,53.3331,-6.2489,Ireland,1059000,1059245.5568291615
Edmonton,53.55,-113.5,Canada,1058000,1058235.7268747091
Sholapur,17.6704,75.9,India,1057000,1056461.0589313405
Rostov,47.2346,39.7127,Russia,1052000,1051668.615000104
Dnipro,48.48,35,Ukraine,1050000,1049008.5875312104
Xining,36.62,101.77,China,1048000,1050393.500290944
Zhangjiakou,40.83,114.93,China,1046000,1046683.2780515797
Gaziantep,37.075,37.385,Turkey,1044000,1043825.4787231953
Lille,50.65,3.08,France,1044000,1044070.606514162
Ranchi,23.37,85.33,India,1044000,1044028.2920340688
Monrovia,6.3106,-10.8048,Liberia,1041000,1040266.5728951544
São Luís,-2.516,-44.266,Brazil,1038000,1038917.8337258645
Amsterdam,52.35,4.9166,Netherlands,1031000,1030863.7827438104
Jerusalem,31.7784,35.2066,Israel,1029300,1029157.8857321842
New Orleans,30.0687,-89.9288,United States,1029123,1028632.8108558889
Guatemala,14.6211,-90.527,Guatemala,1024000,1022795.8985558823
Florianópolis,-27.58,-48.52,Brazil,1023000,1023712.3884450981
Zhuhai,22.2769,113.5678,China,1023000,1024069.3128903483
Port Elizabeth,-33.97,25.6,South Africa,1021000,1020209.5876425735
Port Harcourt,4.81,7.01,Nigeria,1020000,1019816.9564248531
Jiamusi,46.83,130.35,China,1020000,1020909.2815034941
Raleigh,35.8323,-78.6439,United States,1018336,1018205.9398250635
Ufa,54.79,56.04,Russia,1018000,1016460.8021703797
Hengyang,26.88,112.59,China,1016000,1016230.0444209395
Benxi,41.3304,123.75,China,1012000,1011646.7293242353
Louisville,38.1662,-85.6488,United States,1011696,1011733.7646067281
Haifa,32.8204,34.98,Israel,1011000,1011637.0562811198
Medina,24.5,39.58,Saudi Arabia,1010000,1010692.6048619102
Bucaramanga,7.1301,-73.1259,Colombia,1009000,1008113.2702273517
Maracay,10.2469,-67.5958,Venezuela,1007000,1007041.0478503591
Rotterdam,51.92,4.48,Netherlands,1005000,1004759.1318217692
Hims,34.73,36.72,Syria,1005000,1004354.318191621
Cologne,50.93,6.95,Germany,1004000,1006479.9164388531
Qinhuangdao,39.9304,119.62,China,1003000,1003231.5125385035
Fez,34.0546,-5.0004,Morocco,1002000,1003434.0009657424
Aden,12.7797,45.0095,Yemen,1000000,1001648.7102757453
Da Nang,16.06,108.25,Vietnam,1000000,999439.1574809139
Cochabamba,-17.41,-66.17,Bolivia,1000000,999403.7592859464
Yongzhou,26.2304,111.62,China,1000000,1000843.4993042187
Baoshan,25.12,99.15,China,1000000,998879.3784624309
Kitakyūshū,33.8704,130.82,Japan,997536,997891.7457628127
Perm,58,56.25,Russia,997000,997347.4353786818
Ahvaz,31.28,48.72,Iran,996000,994854.1886817826
Jodhpur,26.2918,73.0168,India,995000,995104.4547384003
San Luis Potosí,22.17,-101,Mexico,992000,991399.4278155351
Odessa,46.49,30.71,Ukraine,991000,991141.2876800555
Yinchuan,38.468,106.273,China,991000,989624.714944982
Ndjamena,12.1131,15.0491,Chad,989000,989310.8345269569
Donetsk,48,37.83,Ukraine,988000,987118.4671642787
Joinville,-26.32,-48.8399,Brazil,988000,987891.8707928058
Jiaxing,30.7704,120.75,China,988000,988730.7498301602
Guilin,25.28,110.28,China,987000,986437.9354667723
Dahuk,36.8667,43,Iraq,986000,985690.5376530761
Volgograd,48.71,44.5,Russia,984000,985696.8038029282
Guwahati,26.16,91.77,India,983000,983905.7822777949
Yichun,27.8333,114.4,China,982000,981235.3901199074
Yangquan,37.87,113.57,China,981448,982187.0068815702
Natal,-6.9838,-60.2699,Brazil,980588,980370.346959401
Chandigarh,30.72,76.78,India,979000,978609.1159850006
Gwalior,26.23,78.1801,India,978000,976805.0973124013
Hamamatsu,34.7181,137.7327,Japan,977023,977112.9977990207
Qom,34.65,50.95,Iran,973000,973566.5522782266
Mérida,20.9666,-89.6166,Mexico,965000,963014.2456513041
Jixi,45.3,130.97,China,965000,963759.9656749939
Xinyi,34.38,118.35,China,962656,961956.4393655177
Querétaro,20.63,-100.38,Mexico,961000,960006.8060168421
Pingxiang,27.62,113.85,China,961000,960158.3200254416
Kelang,3.0204,101.55,Malaysia,956000,956701.090554196
João Pessoa,-7.1011,-34.8761,Brazil,956000,956700.2505228103
Jinzhou,41.1204,121.1,China,956000,953921.1163983999
Oklahoma City,35.4676,-97.5136,United States,955998,954969.7069233614
Salerno,40.6804,14.7699,Italy,954265,954677.9145343021
Thiruvananthapuram,8.5,76.95,India,954000,955491.7798037771
Kozhikode,11.2504,75.77,India,953000,950493.4379314496
Ogbomosho,8.13,4.24,Nigeria,951000,949818.3768424079
Tiruchirappalli,10.81,78.69,India,951000,951055.0785208727
General Santos,6.1108,125.1747,Philippines,950530,951821.0955512539
Hue,16.47,107.58,Vietnam,950000,949834.1905196552
Bacolod,10.6317,122.9817,Philippines,949354,947929.3379862368
Nantong,32.0304,120.825,China,947000,946871.5409787266
Tegucigalpa,14.102,-87.2175,Honduras,946000,946775.9140102405
Foshan,23.0301,113.12,China,943000,940478.5601985262
Songnam,37.4386,127.1378,"Korea, South",942000,941583.4741340639
Bridgeport,41.1909,-73.1958,United States,938406,937190.1727467949
Kingston,17.9771,-76.7674,Jamaica,937700,939139.3706376248
Naypyidaw,19.7666,96.1186,Burma,930000,929394.8860746789
Nice,43.715,7.265,France,927000,926424.6939189248
Buffalo,42.9017,-78.8487,United States,926261,927148.5409292025
Irbil,36.179,44.0086,Iraq,926000,925223.4262714793
Krasnoyarsk,56.014,92.866,Russia,925000,923937.9126483926
Djibouti,11.595,43.148,Djibouti,923000,923197.7860318717
Olinda,-8,-34.85,Brazil,921840,922290.0462154485
Managua,12.153,-86.2685,Nicaragua,920000,921011.2231065086
Antwerpen,51.2204,4.415,Belgium,920000,920105.5687778769
Konya,37.875,32.475,Turkey,919000,918046.0684259005
Bogor,-6.57,106.75,Indonesia,918000,917614.3933438163
Niamey,13.5167,2.1167,Niger,915000,914246.2719866841
Hartford,41.7661,-72.6834,United States,914751,912942.7267330206
Xinyu,27.8,114.93,China,913000,912490.7019059196
Huaibei,33.9504,116.75,China,913000,912818.164685087
Teresina,-5.095,-42.78,Brazil,907000,908704.8800771594
Naha,26.2072,127.673,Japan,905238,906210.4363936877
Xinxiang,35.3204,113.87,China,903000,904285.6962181382
Goyang,37.6527,126.8372,"Korea, South",903000,902981.8499517537
Yibin,28.77,104.57,China,902000,902433.642103955
Aba,5.1004,7.35,Nigeria,897560,897390.1806102459
Maiduguri,11.85,13.16,Nigeria,896000,897528.054367824
Tirana,41.3275,19.8189,Albania,895350,894195.9364487273
Kathmandu,27.7167,85.3166,Nepal,895000,895902.3888764312
Az Zarqa,32.07,36.1,Jordan,894691,895134.7398569374
Tarsus,36.9204,34.88,Turkey,894318,894059.395728855
Bengbu,32.95,117.33,China,894000,894628.3473194273
Mendoza,-32.8833,-68.8166,Argentina,893000,893510.0042666435
Hubli,15.36,75.125,India,890000,891424.7639925224
Concepción,-36.83,-73.05,Chile,889725,890243.16384889
Zaria,11.08,7.71,Nigeria,889000,889648.9413425601
Anyang,36.08,114.35,China,887000,885799.426329538
Cartagena,10.3997,-75.5144,Colombia,887000,886968.5628454741
Mysore,12.31,76.66,India,887000,887104.8216695689
Ulaanbaatar,47.9167,106.9166,Mongolia,885000,883349.4287279834
Mexicali,32.65,-115.48,Mexico,885000,883712.3279575888
Tongliao,43.62,122.27,China,884000,884286.5137692272
Newcastle,55.0004,-1.6,United Kingdom,882000,881314.9355229819
Mombasa,-4.04,39.6899,Kenya,882000,882694.2557601864
Novo Hamburgo,-29.7096,-51.14,Brazil,876990,878188.2698564348
Callao,-12.07,-77.135,Peru,876877,877566.5494853307
Bilbao,43.25,-2.93,Spain,875552,873950.1395784004
Johor Bahru,1.48,103.73,Malaysia,875000,874196.4248013406
Yichang,30.7,111.28,China,875000,875388.3853616446
Raipur,21.235,81.635,India,875000,874562.1205870816
Fort Worth,32.7814,-97.3473,United States,874168,874661.9107828039
Salem,11.67,78.1801,India,873000,872480.0284930902
Yangjiang,21.8504,111.97,China,872363,873681.0089587901
Marrakesh,31.63,-8,Morocco,872000,871646.7440252219
Kaifeng,34.85,114.35,China,872000,871666.90071561
Dandong,40.1436,124.3936,China,870000,868731.1769878909
Basra,30.5135,47.8136,Iraq,870000,870998.4714794783
Aguascalientes,21.8795,-102.2904,Mexico,869000,869894.2546892128
Tucson,32.1546,-110.8782,United States,868391,869170.974668583
Okayama,34.672,133.9171,Japan,866092,864530.6706132931
Xuanzhou,30.9525,118.7553,China,866000,865992.393231022
Puch'on,37.4989,126.7831,"Korea, South",866000,865023.1356499767
Rizhao,35.4304,119.45,China,865000,864368.4359231918
Bandar Lampung,-5.43,105.27,Indonesia,865000,864282.4627144578
Palermo,38.125,13.35,Italy,863000,862082.9688884391
Cardiff,51.5,-3.225,United Kingdom,861400,859958.7429157436
Kigali,-1.9536,30.0605,Rwanda,860000,859157.7271100786
Tampico,22.3,-97.87,Mexico,859419,860469.5084190347
Jiaozuo,35.25,113.22,China,857000,857757.4698033651
Padang,-0.96,100.36,Indonesia,855000,855014.0014201154
Jullundur,31.3349,75.569,India,855000,854430.4202608053
Valparaíso,-33.0478,-71.621,Chile,854000,854169.3180253115
Zhenjiang,32.22,119.43,China,854000,853268.7769731664
Zunyi,27.7,106.92,China,849000,847196.1522454115
Anshun,26.2504,105.93,China,849000,848301.638963306
Pingdingshan,33.7304,113.3,China,849000,849280.1121867242
Toulouse,43.62,1.4499,France,847000,846186.3164783835
El Paso,31.8479,-106.4309,United States,845674,846314.4657828142
Nova Iguaçu,-22.74,-43.47,Brazil,844583,846005.3959084644
Voronezh,51.73,39.27,Russia,844000,842079.4874378628
Bhubaneshwar,20.2704,85.8274,India,844000,845002.7789445347
Saratov,51.58,46.03,Russia,843000,842423.4967915337
Yuci,37.6804,112.73,China,840000,838445.1871990036
Yancheng,33.3856,120.1253,China,839000,840073.3444014842
Bishkek,42.8731,74.5852,Kyrgyzstan,837000,837975.1229870394
Oslo,59.9167,10.75,Norway,835000,833139.6107245187
Cuernavaca,18.9211,-99.24,Mexico,834001,833237.558547787
Linfen,36.0803,111.52,China,834000,834265.8392927428
Honolulu,21.3294,-157.846,United States,833671,834980.4165038806
Bangui,4.3666,18.5583,Central African Republic,831925,831217.941902631
Warri,5.52,5.76,Nigeria,830106,828853.152807696
Tucumán,-26.816,-65.2166,Argentina,830000,830466.0227376727
Basel,47.5804,7.59,Switzerland,830000,829343.4620273685
Kermanshah,34.38,47.06,Iran,828313,829770.5968360122
Thessaloniki,40.6961,22.885,Greece,828000,827548.8586516293
Omaha,41.2628,-96.0495,United States,827786,828112.6315047862
Freetown,8.47,-13.2342,Sierra Leone,827000,825759.2814654246
Kota,25.18,75.835,India,827000,827437.6794022103
Braga,41.555,-8.4213,Portugal,826833,825061.2716245719
Jhansi,25.453,78.5575,India,826494,826861.3162348209
Yueyang,29.3801,113.1,China,826000,825092.4274114361
Nottingham,52.9703,-1.17,United Kingdom,825600,823090.3597236046
Agadir,30.44,-9.62,Morocco,825467,826335.1027587462
Butterworth,5.4171,100.4,Malaysia,821652,821397.1201523686
Bareilly,28.3454,79.42,India,817000,818192.1435164637
Jos,9.93,8.89,Nigeria,816824,815258.4465536432
Xingyi,25.0904,104.89,China,816000,815878.7426366421
Arequipa,-16.42,-71.53,Peru,815000,813717.025485674
Cebu,10.32,123.9001,Philippines,815000,815441.2971463328
Liverpool,53.416,-2.918,United Kingdom,811000,811137.5446116815
Rajshahi,24.375,88.605,Bangladesh,810000,810756.3637025004
Langfang,39.5204,116.68,China,810000,808437.2671781043
Wuhu,31.3504,118.37,China,810000,810130.4964140898
Culiacán,24.83,-107.38,Mexico,809000,808949.2435404264
Zhaotang,27.3204,103.72,China,809000,808599.1601667077
Valencia,39.485,-0.4,Spain,808000,808753.6364501022
Cuiabá,-15.5696,-56.085,Brazil,806000,806679.7959848776
Lingyuan,41.24,119.4011,China,806000,806425.8404280209
Qui Nhon,13.78,109.18,Vietnam,805290,806408.0625924144
Malang,-7.98,112.61,Indonesia,805000,805834.8209981223
Aligarh,27.8922,78.0618,India,805000,802560.1543552779
Lvov,49.835,24.03,Ukraine,803880,802141.2561798606
Bordeaux,44.85,-0.595,France,803000,804532.830634577
McAllen,26.2325,-98.2467,United States,800904,801888.244679202
Baoji,34.38,107.15,China,800000,800192.7583604
Pekanbaru,0.565,101.425,Indonesia,799000,797099.7121425667
Oran,35.71,-0.62,Algeria,798000,799184.1385403483
Yingkow,40.6703,122.28,China,795000,792254.5871563641
Bhiwandi,19.35,73.13,India,795000,794808.8275156284
Liaoyang,41.28,123.18,China,794000,794192.1757020546
Chihuahua,28.645,-106.085,Mexico,793000,793117.707199471
Jammu,32.7118,74.8467,India,791000,790203.7992886569
Malacca,2.2064,102.2465,Malaysia,788706,787359.8054773379
Zaporizhzhya,47.8573,35.1768,Ukraine,788000,788009.7454022716
Moradabad,28.8418,78.7568,India,787000,787901.8175463787
Antalya,36.89,30.7,Turkey,783000,780779.4300716588
Al Hudaydah,14.7979,42.953,Yemen,780000,778869.7292065623
Islamabad,33.7,73.1666,Pakistan,780000,779675.4870011751
Campo Grande,-20.45,-54.6166,Brazil,778000,778520.8276593949
Shaoxing,30.0004,120.57,China,777000,776108.8619211226
Yichun,47.6999,128.9,China,777000,777295.1708550011
Mangalore,12.9,74.85,India,776632,775974.6907427206
Wuppertal,51.25,7.17,Germany,776525,775369.4943963218
Cheongju,36.6439,127.5012,"Korea, South",775096,776216.3597259166
Zamboanga,6.92,122.08,Philippines,773000,771632.9915110517
Hamhung,39.9101,127.5454,"Korea, North",773000,773893.7967980248
Ilorin,8.49,4.55,Nigeria,771000,769517.4304634655
Fuyang,30.0533,119.9519,China,771000,771742.4111602545
Saarbrücken,49.2504,6.97,Germany,770001,768854.1018787916
Fuxin,42.0105,121.66,China,770000,770026.1400248439
Shiyan,32.57,110.78,China,770000,769462.8101466869
Quetta,30.22,67.025,Pakistan,768000,768209.4476272628
Trujillo,-8.12,-79.02,Peru,765171,766014.9087725707
Kananga,-5.89,22.4,Congo (Kinshasa),765000,764477.3959180126
Trabzon,40.98,39.72,Turkey,764714,764667.4262786987
Cotonou,6.4,2.52,Benin,762000,760688.3683103515
Jincheng,35.5004,112.83,China,760000,761419.9921226426
Albuquerque,35.1053,-106.6464,United States,758523,758528.3235750102
Łódź,51.775,19.4514,Poland,758000,757710.6108862807
Kraków,50.06,19.96,Poland,756000,755179.5528070355
Vientiane,17.9667,102.6,Laos,754000,752202.6636196551
Saltillo,25.42,-101.005,Mexico,754000,751860.9263792797
São José dos Campos,-23.2,-45.8799,Brazil,753769,753889.6402717439
Hungnam,39.8231,127.6232,"Korea, North",751322,751119.1989006825
Taizz,13.6045,44.0394,Yemen,751000,751308.7221329628
Pietermaritzburg,-29.61,30.39,South Africa,750845,749193.6007462875
Tangier,35.7473,-5.8327,Morocco,750060,750664.3017184726
Changhua,24.0734,120.5134,Taiwan,750000,751543.7912704996
Hsinchu,24.8168,120.9767,Taiwan,750000,750727.7798131836
Fargona,40.39,71.78,Uzbekistan,750000,748552.6890876681
Namangan,41,71.67,Uzbekistan,750000,750873.6001613638
Kolhapur,16.7,74.22,India,750000,750048.2609492567
Liège,50.63,5.58,Belgium,749110,748636.7384793725
Ciudad Guayana,8.37,-62.62,Venezuela,746535,746123.4449985845
Birmingham,33.5276,-86.7988,United States,744189,742466.2101490424
Hegang,47.4,130.37,China,743307,742226.6373988884
Riga,56.95,24.1,Latvia,742572,742697.1559347712
Nouakchott,18.0864,-15.9753,Mauritania,742144,741587.9106348089
Naga,13.6192,123.1814,Philippines,741635,742000.6446097364
Gdańsk,54.36,18.64,Poland,740000,740696.8938286104
Ansan,37.3481,126.8595,"Korea, South",739493,739255.7845279943
Nürnberg,49.45,11.08,Germany,737304,738182.5714281119
Oyo,7.8504,3.93,Nigeria,736072,738319.8155489238
Muscat,23.6133,58.5933,Oman,734697,735480.5313026177
Amravati,20.95,77.77,India,734451,734358.6022475722
Denpasar,-8.65,115.22,Indonesia,732344,731536.0989257212
Sokoto,13.06,5.24,Nigeria,732178,732805.5864300806
Beihai,21.4804,109.1,China,728978,728296.3707829191
Ashgabat,37.95,58.3833,Turkmenistan,727700,726939.4078251556
Bremen,53.08,8.8,Germany,724909,724482.4230263142
As Sulaymaniyah,35.5613,45.4309,Iraq,723170,723351.0863091372
Zagreb,45.8,16,Croatia,722526,722359.6127001568
Hannover,52.367,9.7167,Germany,722490,722417.1766699916
Cúcuta,7.92,-72.52,Colombia,722146,722252.1494887237
Hamilton,43.25,-79.83,Canada,721053,721816.7875982318
Moshi,-3.3396,37.34,Tanzania,721018,722614.2949459777
Shaoguan,24.8,113.58,China,720266,720419.147720938
Kumamoto,32.8009,130.7006,Japan,718232,718832.5397162103
Dayton,39.7797,-84.1998,United States,718169,718796.4741029595
Lianyungang,34.6004,119.17,China,715600,714835.1117934603
Acapulco,16.85,-99.916,Mexico,715584,714071.720621145
Kandahar,31.61,65.6949,Afghanistan,715542,717269.8273352503
Dehra Dun,30.3204,78.05,India,714223,711992.1276921395
Rochester,43.168,-77.6162,United States,711998,711686.3945457059
Jeonju,35.8314,127.1404,"Korea, South",711424,710649.6704705515
Samarqand,39.67,66.945,Uzbekistan,708000,708187.7736988747
Qingyuan,23.7004,113.0301,China,706717,708049.0928448067
Sarasota,27.3391,-82.5439,United States,706245,706334.5308966113
Changzhi,36.1839,113.1053,China,706000,705284.569805407
Tolyatti,53.4804,49.53,Russia,702879,702903.0436537877
Jaboatao,-8.11,-35.02,Brazil,702621,702540.0839015101
Shizuoka,34.9858,138.3854,Japan,701561,701647.5309795208
Bulawayo,-20.17,28.58,Zimbabwe,699385,698544.5617183298
Soledad,10.92,-74.77,Colombia,698852,697635.038041783
Fresno,36.7834,-119.7941,United States,698021,698892.0225785582
Meknes,33.9004,-5.56,Morocco,697628,698818.0725537626
Sarajevo,43.85,18.383,Bosnia And Herzegovina,696731,696446.215886475
La Plata,-34.9096,-57.96,Argentina,694253,692464.4654417745
Malegaon,20.5604,74.525,India,690844,689401.8511481199
Enugu,6.45,7.5,Nigeria,688862,689251.0800097097
Chișinău,47.005,28.8577,Moldova,688134,687928.6207862492
Huangshi,30.22,115.1,China,688090,688092.2868083272
Aracaju,-10.9,-37.12,Brazil,685356,683795.2691435643
Allentown,40.5961,-75.4756,United States,682899,682541.1982997073
Bonn,50.7205,7.08,Germany,680543,680243.8809327476
San Pedro Sula,15.5,-88.03,Honduras,680091,680760.5760716004
Nellore,14.44,79.9899,India,678004,677733.706297247
Catania,37.5,15.08,Italy,674542,673701.1406406722
Gorakhpur,26.7504,83.38,India,674246,672785.6204945545
Ipoh,4.6,101.065,Malaysia,673318,673138.8186346929
Chongjin,41.7846,129.79,"Korea, North",672614,672894.4658656273
Tulsa,36.1284,-95.9042,United States,672054,672132.6152350184
Utsunomiya,36.55,139.87,Japan,667752,668520.9392217638
Puyang,35.7004,114.98,China,666322,665828.0481322195
An Najaf,32.0003,44.3354,Iraq,665552,664690.3363179116
São José dos Pinhais,-25.57,-49.18,Brazil,665063,667396.0977113284
Santo André,-23.6528,-46.5278,Brazil,662373,664030.5389332231
Bytom,50.35,18.91,Poland,662247,659228.3871628334
Pointe-Noire,-4.77,11.88,Congo (Brazzaville),659084,659357.9667816851
At Taif,21.2622,40.3823,Saudi Arabia,657282,658303.5308724148
Ismaïlia,30.5903,32.26,Egypt,656135,656421.2998984347
Concord,37.9722,-122.0016,United States,654770,654073.1553359597
Shimoga,13.9304,75.56,India,654055,656671.2226226224
Biên Hòa,10.97,106.8301,Vietnam,652646,653133.28750531
Zhanyi,25.6005,103.8166,China,652604,651560.9701181644
Kryvyy Rih,47.9283,33.345,Ukraine,652380,651126.0801659484
Andijon,40.79,72.34,Uzbekistan,650000,650873.8493394763
Tiruppur,11.0804,77.33,India,650000,651545.0154948733
Irbid,32.55,35.85,Jordan,650000,649528.7643542672
Krasnodar,45.02,39,Russia,649851,650784.6958538422
Zaragoza,41.65,-0.89,Spain,649404,649475.4096749569
Genoa,44.41,8.93,Italy,647497,648225.4962238439
Lilongwe,-13.9833,33.7833,Malawi,646750,645117.8957315183
Diyarbakır,37.9204,40.23,Turkey,644763,644934.279827364
Morelia,19.7334,-101.1895,Mexico,644306,643762.6260340564
Ulyanovsk,54.33,48.41,Russia,640680,641958.5088491617
Utrecht,52.1003,5.12,Netherlands,640000,640255.9835360066
Kikwit,-5.03,18.85,Congo (Kinshasa),637736,638763.8291746792
Al Hufuf,25.3487,49.5856,Saudi Arabia,637389,638077.3453159906
Yogyakarta,-7.78,110.375,Indonesia,636660,637567.9825392182
Wrocław,51.1104,17.03,Poland,634893,635118.9039309353
Winnipeg,49.883,-97.166,Canada,632063,632522.0716917104
Izhevsk,56.85,53.23,Russia,631038,630718.3923198654
Cape Coral,26.6444,-81.9956,United States,630134,629746.3038353303
Springfield,42.1155,-72.5395,United States,628076,628909.6978729977
Zhuozhou,39.5401,115.79,China,628000,625879.0782070737
Raurkela,22.2304,84.83,India,625831,625426.6294734254
Québec,46.84,-71.2456,Canada,624177,623677.0679981789
Poznań,52.4058,16.8999,Poland,623997,623350.5169129325
Colorado Springs,38.8674,-104.7606,United States,623946,624705.9375756889
Bur Said,31.26,32.29,Egypt,623864,625311.2910891336
Nanded,19.17,77.3,India,623708,622355.620391824
Bannu,32.989,70.5986,Pakistan,622419,621856.854859243
Asmara,15.3333,38.9333,Eritrea,620802,620276.4982168486
Southend-on-Sea,51.55,0.72,United Kingdom,618386,617511.4064125879
Dresden,51.05,13.75,Germany,617515,618214.9821740807
Wiesbaden,50.0804,8.25,Germany,617126,618326.6429702023
Charleston,32.8137,-79.9643,United States,616085,616462.1032321322
Changping,40.2248,116.1944,China,614821,615418.5947524951
Palu,-0.907,119.833,Indonesia,612445,610397.7057033193
Taizhou,32.4904,119.9,China,612356,613778.6615948841
Xiangtai,37.05,114.5,China,611739,611205.0761310455
Samsun,41.28,36.3437,Turkey,609339,609593.93550618
Luxor,25.7,32.65,Egypt,609248,609688.2895548972
Belgaum,15.865,74.505,India,608756,606977.467945901
Pontianak,-0.03,109.32,Indonesia,607311,609101.6901031095
Yaroslavl,57.62,39.87,Russia,606730,606984.9445596793
Constantine,36.36,6.5999,Algeria,605179,604561.1164306295
Bandjarmasin,-3.33,114.5801,Indonesia,603576,604699.7020695644
Abu Dhabi,24.4667,54.3666,United Arab Emirates,603492,602009.2278974165
Grand Rapids,42.9615,-85.6557,United States,602694,602259.4630338597
Kirkuk,35.4722,44.3923,Iraq,601433,600544.3597349119
Sangli,16.8604,74.575,India,601214,602311.9273841446
Barcelona,10.1304,-64.72,Venezuela,600954,603246.872544636
Mission Viejo,33.6095,-117.6551,United States,600474,599631.494485116
Canoas,-29.92,-51.18,Brazil,600000,600993.7525595409
El Mansura,31.0504,31.38,Egypt,600000,601317.2070643032
Sohag,26.5504,31.7,Egypt,600000,600030.2476465143
Barnaul,53.355,83.745,Russia,599579,598431.7536798978
Zahedan,29.5,60.83,Iran,598887,599362.8550316113
Jalalabad,34.4415,70.4361,Afghanistan,597971,597836.6384627669
Albany,42.6664,-73.7987,United States,597270,597191.0987167764
Chiclayo,-6.7629,-79.8366,Peru,596792,596880.405525103
Hermosillo,29.0989,-110.9541,Mexico,595811,594830.3526353897
Port Louis,-20.1666,57.5,Mauritius,595491,595090.4264063309
Chandrapur,19.97,79.3,India,595118,593205.3669805126
Al Hillah,23.4895,46.7564,Saudi Arabia,594605,593171.6344658716
Al Hillah,32.4721,44.4217,Iraq,594605,594102.7431907953
Rasht,37.3,49.63,Iran,594590,596070.0857137059
Nagano,36.65,138.17,Japan,594311,594294.1130771202
Vinh,18.7,105.68,Vietnam,593645,591590.7038570164
Abeokuta,7.1604,3.35,Nigeria,593100,592963.97376096
Kayseri,38.735,35.49,Turkey,592840,592625.2370621592
Samarinda,-0.5,117.15,Indonesia,592228,589317.4751277197
Ajmer,26.45,74.64,India,589985,589546.3659445646
Dortmund,51.53,7.45,Germany,588462,590104.4471185422
Vladivostok,43.13,131.91,Russia,587022,587153.4964125624
Irkutsk,52.32,104.245,Russia,586695,588311.2902534407
Knoxville,35.9692,-83.9495,United States,585249,585993.3467805219
Blantyre,-15.79,34.9899,Malawi,584877,584262.5184014121
Baton Rouge,30.4423,-91.1314,United States,583613,585427.769117586
Anqing,30.5,117.05,China,580497,581949.5378572171
Cuttack,20.47,85.8899,India,580000,579544.3661576923
Hachiōji,35.6577,139.3261,Japan,579399,579100.4754285797
Khabarovsk,48.455,135.12,Russia,579000,579685.4043785307
Veracruz,19.1773,-96.16,Mexico,578963,577297.2608889538
Kisangani,0.52,25.22,Congo (Kinshasa),578470,578834.8660166083
Libreville,0.3854,9.458,Gabon,578156,578383.419138137
Kerman,30.3,57.08,Iran,577514,577982.0364163031
Urmia,37.53,45,Iran,577307,577087.285593665
Bikaner,28.0304,73.3299,India,576015,575513.1865114501
Quetzaltenango,14.83,-91.52,Guatemala,575263,575030.7472100726
Bakersfield,35.353,-119.036,United States,574362,574651.2286087399
Ogden,41.228,-111.9677,United States,573632,572820.0732114891
Shihezi,44.3,86.0299,China,573182,573666.0800702102
Kuching,1.53,110.33,Malaysia,570407,569055.6137747436
Shuozhou,39.3004,112.42,China,570000,570315.4112191125
Niigata,37.92,139.04,Japan,569797,568626.1910083499
Pereira,4.8104,-75.68,Colombia,568750,570116.2630336855
Macau,22.203,113.545,Macau,568700,567548.6080570002
New Haven,41.3112,-72.9245,United States,568144,567895.9076554877
Bouaké,7.69,-5.03,Côte D’Ivoire,567481,565314.0500505982
Columbia,34.037,-80.9042,United States,566166,564655.0256963328
Akron,41.0802,-81.5219,United States,565920,565300.9524939776
Binjai,3.6204,98.5001,Indonesia,564979,566975.8739595936
Manama,26.2361,50.5831,Bahrain,563920,564112.8262348699
Uberlândia,-18.9,-48.28,Brazil,563536,563828.0164669136
Sorocaba,-23.49,-47.47,Brazil,563281,563223.0603358739
Tongling,30.9504,117.78,China,562832,562934.3406716385
Weihai,37.5,122.1,China,560255,560502.3235249064
Mar del Plata,-38,-57.58,Argentina,555897,556692.527391655
Santiago de Cuba,20.025,-75.8213,Cuba,555865,554601.9330095018
Siping,43.17,124.33,China,555609,556491.4826618977
Kagoshima,31.586,130.5611,Japan,555352,555725.8588402603
Surakarta,-7.565,110.825,Indonesia,555308,554758.1757134405
Makhachkala,42.98,47.5,Russia,554981,555712.9998440808
Bhavnagar,21.7784,72.13,India,554978,554441.3970621788
Uyo,5.008,7.85,Nigeria,554906,553513.6966697306
Bristol,51.45,-2.5833,United Kingdom,553528,551657.8866620747
Bahawalpur,29.39,71.675,Pakistan,552607,552154.8605706223
Kenitra,34.2704,-6.58,Morocco,551786,553308.5212858821
Ribeirão Preto,-21.17,-47.83,Brazil,551267,551706.2369537101
Kanazawa,36.56,136.64,Japan,551249,551018.9493969517
Orenburg,51.78,55.11,Russia,550204,552606.2412735781
Málaga,36.7204,-4.42,Spain,550058,550749.2865706704
Tabuk,28.3838,36.555,Saudi Arabia,547957,546153.9168122166
Puerto la Cruz,10.17,-64.68,Venezuela,546616,547292.1114781443
Jiujiang,29.73,115.98,China,545616,547857.7363722051
Hisar,29.17,75.725,India,544829,544662.0903921677
Kashgar,39.4763,75.9699,China,543914,544183.0255055035
Matola,-25.9696,32.46,Mozambique,543907,544190.3130477496
Bilaspur,22.0904,82.16,India,543454,544653.8258049204
Sargodha,32.0854,72.675,Pakistan,542603,542908.8829921088
Leipzig,51.3354,12.41,Germany,542529,542195.886304479
Vilnius,54.6834,25.3166,Lithuania,542366,543356.7207156077
Tirunelveli,8.7304,77.69,India,542200,540961.2664584259
Cancún,21.17,-86.83,Mexico,542043,542312.4499736223
Yangzhou,32.4,119.43,China,539715,538698.9822725912
Novokuznetsk,53.75,87.115,Russia,539616,539401.2311088647
Al Ladhiqiyah,35.54,35.78,Syria,539147,540367.6172191697
Matamoros,25.88,-97.5,Mexico,538785,540608.9840769586
Göteborg,57.75,12,Sweden,537797,537236.9895332026
Ōtsu,35.0064,135.8674,Japan,536976,535454.7224537199
Tomsk,56.495,84.975,Russia,535479,536682.3050529223
Linxia,35.6,103.2,China,534555,536832.1660942717
Matsuyama,33.8455,132.7658,Japan,533541,533166.1678827184
Rouen,49.4304,1.08,France,532559,532152.4354677422
Jiangmen,22.5804,113.08,China,532419,533770.9356016889
Oaxaca,17.0827,-96.6699,Mexico,530728,530606.2230290854
Beira,-19.82,34.87,Mozambique,530604,530876.2460216674
Guntur,16.33,80.45,India,530577,531789.0360337258
Trablous,34.42,35.87,Lebanon,530000,530133.7424720215
Hamadan,34.796,48.515,Iran,528256,527642.0908037418
Cangzhou,38.3204,116.87,China,527681,528569.3172204288
Kota Kinabalu,5.98,116.11,Malaysia,527671,527124.2533318417
Gold Coast,-28.0815,153.4482,Australia,527660,529037.6365123661
Jian,27.1304,115,China,520248,519917.34020311525
Londrina,-23.3,-51.18,Brazil,520238,520775.4785660543
Ryazan,54.62,39.72,Russia,520173,522976.9244985218
Shashi,30.32,112.23,China,520000,520059.6433332464
Bello,6.33,-75.57,Colombia,519670,518983.1887540088
Tyumen,57.14,65.53,Russia,519119,516541.4687494581
Lipetsk,52.62,39.64,Russia,515655,517442.4903011935
Siliguri,26.7204,88.455,India,515574,515072.6266005447
Eskişehir,39.795,30.53,Turkey,514869,515055.4716566889
Banda Aceh,5.55,95.32,Indonesia,513698,513318.6469152693
Ujjain,23.1904,75.79,India,513350,512614.66639236413
Salta,-24.7834,-65.4166,Argentina,512686,511587.54238486756
Penza,53.18,45,Russia,512602,514370.41988682025
Blida,36.4203,2.83,Algeria,511348,510492.5792550627
Mykolayiv,46.9677,31.9843,Ukraine,510840,510817.9803720131
Karbala,32.6149,44.0245,Iraq,510692,509299.5300075082
Suez,30.005,32.5499,Egypt,508335,508313.8289218772
Gliwice,50.3304,18.67,Poland,507670,509604.1965714619
Bukittinggi,-0.3031,100.3615,Indonesia,506964,506521.1099050002
Liaoyuan,42.9,125.13,China,506548,508298.83577796986
Kota Baharu,6.12,102.23,Malaysia,505583,504475.45092436974
Jundiaí,-23.2,-46.88,Brazil,505548,505756.15754429455
Edinburgh,55.9483,-3.2191,United Kingdom,504966,504037.29613214714
Tlaxcala,19.32,-98.23,Mexico,503878,502778.3485759632
Provo,40.2458,-111.6457,United States,503695,503140.2954676149
Arak,34.0804,49.7,Iran,503647,504446.81088407733
Davangere,14.47,75.92,India,503564,502930.746971045
Viña del Mar,-33.03,-71.54,Chile,503534,503730.9855161144
Pingtung,22.6817,120.4817,Taiwan,503530,503146.16807501
Annaba,36.92,7.76,Algeria,503524,503012.9336984297
Akola,20.71,77.01,India,503502,504584.79156480567
Brighton,50.8303,-0.17,United Kingdom,503008,502650.4203529288
Astrakhan,46.3487,48.055,Russia,502533,501540.3853111748
Bradford,53.8,-1.75,United Kingdom,501700,500194.04906056274
Bari,41.1142,16.8728,Italy,500577,501453.1686642018
Mazatlán,29.0171,-110.1333,Mexico,500000,497906.6080149556
Awka,6.2104,7.07,Nigeria,500000,500045.8282297262
San Lorenzo,-25.34,-57.52,Paraguay,500000,498315.1152845707
Taoyuan,24.9889,121.3111,Taiwan,500000,500050.74783378997
Chiayi,23.4755,120.4351,Taiwan,500000,499233.02613325644
Keelung,25.1333,121.7333,Taiwan,500000,500130.5098464174
Thái Nguyên,21.6,105.83,Vietnam,500000,501315.65405626834
Shuangyashan,46.6704,131.35,China,500000,500625.5635837663
El Minya,28.09,30.75,Egypt,500000,500309.1396588565
Damanhûr,31.0504,30.47,Egypt,500000,497931.75639186247
Pasuruan,-7.6296,112.9,Indonesia,500000,499779.95600676123
Tsu,34.7171,136.5167,Japan,500000,500051.80983635545
Mataram,-8.5795,116.135,Indonesia,499409,499175.4732938006
Macapá,0.033,-51.05,Brazil,499166,496465.1692423583
Worcester,42.2705,-71.8079,United States,498997,499627.1411462361
Reynosa,26.08,-98.3,Mexico,498654,498429.5546105454
Shahrisabz,39.0618,66.8315,Uzbekistan,498545,498445.232747841
Mesa,33.4017,-111.7181,United States,496401,496520.86113546864
Douma,33.5833,36.4,Syria,496145,497326.60861901485
Skopje,42,21.4335,Macedonia,494087,496880.9484547371
Mwanza,-2.52,32.93,Tanzania,493944,493332.93427627155
Wuwei,37.928,102.641,China,493092,492961.13928350265
Palm Bay,27.9861,-80.6628,United States,489912,491058.3817954241
Port Sudan,19.6158,37.2164,Sudan,489725,490157.6793064249
Santa Fe,-31.6239,-60.69,Argentina,489505,488544.430439481
Tula,54.2,37.6299,Russia,489486,489948.0604995555
Beni Suef,29.0804,31.09,Egypt,489450,489700.24453350704
Yanji,42.8823,129.5128,China,488740,489350.206253843
Toledo,41.6639,-83.5822,United States,488672,488297.3595621633
Bologna,44.5004,11.34,Italy,488172,488092.4994071897
Saharanpur,29.97,77.55,India,484873,485736.2389320581
Murrieta,33.5719,-117.1909,United States,483681,485412.4896677885
Gulbarga,17.35,76.82,India,483615,483663.0813683038
Bhatpara,22.8504,88.52,India,483129,482955.6632913653
Wichita,37.6897,-97.3442,United States,483057,481490.7639977469
Ife,7.4804,4.56,Nigeria,482365,482117.9518717879
Feira de Santana,-12.25,-38.97,Brazil,481911,481086.7925827718
Shah Alam,3.0667,101.55,Malaysia,481654,483549.38113961485
Mariupol,47.0962,37.5562,Ukraine,481626,482275.1396104029
Des Moines,41.5725,-93.6104,United States,481222,482527.0117275774
Tuxtla Gutiérrez,16.75,-93.15,Mexico,481128,480605.3122275776
Herat,34.33,62.17,Afghanistan,481009,479968.00301806896
Homyel,52.43,31,Belarus,480951,481879.4438036617
Zhaoqing,23.0504,112.45,China,480000,479312.16707621544
Americana,-22.7499,-47.33,Brazil,479472,480311.51161930035
Dhule,20.9,74.77,India,479073,478820.28581952513
Ostrava,49.8304,18.25,Czechia,478963,478214.35672258073
Yazd,31.9201,54.37,Iran,477905,476885.2326385698
Sialkote,32.52,74.56,Pakistan,477396,475629.5996940876
Kemerovo,55.34,86.09,Russia,477090,477077.3594322601
Nazret,8.55,39.27,Ethiopia,476892,479494.9080415236
Staten Island,40.5834,-74.1496,United States,476015,476331.10441943794
Jiaojing,28.6804,121.45,China,471500,469828.09858308756
Chaoyang,41.5504,120.42,China,470296,469632.3700106205
Juiz de Fora,-21.77,-43.375,Brazil,470193,469690.42919151817
Udaipur,24.6,73.73,India,469737,471065.0381942773
Long Beach,33.8059,-118.161,United States,469450,469907.4893563737
Greenville,34.8363,-82.365,United States,467894,467395.8657703407
İzmit,40.776,29.9306,Turkey,466504,468122.24802995805
Piraeus,37.95,23.7,Greece,466065,467050.6453961992
Shymkent,42.32,69.595,Kazakhstan,465392,464483.6510936087
Iligan,8.1712,124.2154,Philippines,464599,464489.3973725736
Qazvin,36.27,50,Iran,464551,463342.0849256041
Bloemfontein,-29.12,26.2299,South Africa,463064,461181.26369395806
Calabar,4.9604,8.33,Nigeria,461796,461867.49576016114
Malatya,38.3704,38.3,Turkey,461574,461991.85829926486
Panzhihua,26.55,101.73,China,461513,461609.44743062265
Bandar-e-Abbas,27.2041,56.2721,Iran,461499,461813.5439312597
Naberezhnyye Chelny,55.7,52.3199,Russia,461086,460748.6911706625
Hamah,35.1503,36.73,Syria,460602,459694.94429563376
Cranbourne,-38.0996,145.2834,Australia,460491,458466.40985157056
Iquitos,-3.75,-73.25,Peru,458729,458281.45559485815
Mazar-e Sharif,36.7,67.1,Afghanistan,458151,458172.82206299563
Leicester,52.63,-1.1332,United Kingdom,457983,456761.3970647596
Kirov,58.5901,49.67,Russia,457437,457419.27747938
Jingdezhen,29.2704,117.18,China,457298,455255.41478960536
Durango,24.0311,-104.67,Mexico,457140,455556.8985127559
Jambi,-1.59,103.61,Indonesia,457090,457306.9407033686
Volta Redonda,-22.5196,-44.095,Brazil,456362,456104.6912954384
Hengshui,37.72,115.7,China,456356,457291.0971859217
Sfax,34.75,10.72,Tunisia,453050,451229.4142320337
Sunderland,54.92,-1.38,United Kingdom,452934,453923.68682842155
Xalapa,19.53,-96.92,Mexico,452186,451927.82370683673
Luhansk,48.5698,39.3344,Ukraine,452000,450830.6113038193
Manado,1.48,124.85,Indonesia,451893,452027.68824103154
Qaraghandy,49.885,73.115,Kazakhstan,451800,450615.34498973563
An Nasiriyah,31.0429,46.2676,Iraq,451547,451938.1579212138
Oshawa,43.88,-78.85,Canada,450963,450652.270840214
Qitaihe,45.8,130.85,China,450617,449029.40273762733
Belfast,54.6,-5.96,United Kingdom,450406,450652.76347507304
Şanlıurfa,37.17,38.795,Turkey,449549,449343.3282638241
Chengde,40.9604,117.93,China,449325,450494.99432325666
Xuchang,34.0204,113.82,China,449258,447490.5873272393
Chlef,36.1704,1.32,Algeria,449167,449334.49646940734
Ōita,33.2432,131.5979,Japan,448907,449848.0808123707
Baguio City,16.43,120.5699,Philippines,447824,447684.17534027126
San Juan,-31.55,-68.52,Argentina,447048,447219.5219015745
Cheboksary,56.13,47.25,Russia,446781,445916.57530004886
Ado Ekiti,7.6304,5.22,Nigeria,446749,445014.52729884034
Balikpapan,-1.25,116.83,Indonesia,445905,446274.1715157203
Bellary,15.15,76.915,India,445388,444243.0063791419
Bamenda,5.96,10.15,Cameroon,445299,444651.35822517204
Gent,51.03,3.7,Belgium,444336,444634.7944400778
Tokushima,34.0674,134.5525,Japan,443760,444421.01780946157
Little Rock,34.7255,-92.3581,United States,442699,441418.4946864946
Wuzhou,23.48,111.32,China,442315,442048.3473456407
Portsmouth,50.8003,-1.08,United Kingdom,442252,444464.5916772705
Harrisburg,40.2752,-76.8843,United States,441580,442841.09942075936
Cabimas,10.43,-71.45,Venezuela,441094,441609.7593915286
Foz do Iguaçu,-25.5235,-54.53,Brazil,440455,440643.22379658476
Denton,33.2176,-97.1421,United States,440146,439097.9186518099
Wakayama,34.2231,135.1677,Japan,440006,440836.34189053276
Strasbourg,48.58,7.75,France,439972,440425.93175432
Madison,43.0808,-89.3922,United States,439553,440298.82855013513
Mawlamyine,16.5004,97.67,Burma,438861,438186.9037441328
San Cristóbal,7.77,-72.25,Venezuela,438798,438369.8618591048
Nantes,47.2104,-1.59,France,438537,438536.6983282947
Khujand,40.29,69.6199,Tajikistan,437684,438691.453711126
Guangyuan,32.43,105.87,China,437435,437138.2555478982
Khomeini Shahr,32.7004,51.47,Iran,437138,435907.9101163039
Garoua,9.3,13.39,Cameroon,436899,437146.80292533885
Bukavu,-2.51,28.84,Congo (Kinshasa),436779,437144.1715200535
Tuticorin,8.82,78.13,India,436094,435610.42152997165
Nagasaki,32.765,129.885,Japan,435455,436215.5701468118
Pohang,36.0209,129.3715,"Korea, South",435266,435185.6757234951
Kaliningrad,54.7,20.4973,Russia,434954,433003.3073803448
Likasi,-10.97,26.78,Congo (Kinshasa),434408,434899.33550069213
Reno,39.5497,-119.8483,United States,433271,433482.58191650547
Spanish Town,17.9833,-76.95,Jamaica,432704,431517.2217722385
Port Saint Lucie,27.2796,-80.3883,United States,432589,432700.085949876
San Luis,-33.3,-66.35,Argentina,432310,432105.04489087017
Katsina,12.9904,7.6,Nigeria,432149,432678.1725181891
Welkom,-27.97,26.73,South Africa,431944,431665.758690693
Santa Marta,11.2472,-74.2017,Colombia,431781,432010.10335954087
Villahermosa,18,-92.9,Mexico,428564,428873.95607358054
Bryansk,53.26,34.43,Russia,427236,428055.7554095907
Bournemouth,50.73,-1.9,United Kingdom,426945,429225.57080450346
Bengkulu,-3.8,102.27,Indonesia,426673,426813.1150182736
Heidelberg,49.42,8.7,Germany,426590,426090.98673305375
Oakland,37.7903,-122.2165,United States,425195,424928.5773538408
Kurnool,15.83,78.03,India,424920,425869.86955164344
Chaozhou,23.68,116.63,China,424787,425664.96495393914
Batangas,13.7817,121.0217,Philippines,424508,423615.6483991499
Bratislava,48.15,17.117,Slovakia,423737,423884.5631281878
Gaya,24.8,85,India,423692,422401.77148589946
Ibagué,4.4389,-75.2322,Colombia,421685,421746.87357006
Ivanovo,57.01,41.01,Russia,420839,419849.4030459008
Erzurum,39.9204,41.29,Turkey,420691,421357.1623042132
Akure,7.2504,5.2,Nigeria,420594,421226.57143947796
Asyut,27.19,31.1799,Egypt,420585,421029.3102280674
Kolwezi,-10.7167,25.4724,Congo (Kinshasa),418000,419627.7744599531
Sukkur,27.7136,68.8486,Pakistan,417767,418811.14503127296
Luohe,33.57,114.03,China,417356,415137.33657751844
Campina Grande,-7.23,-35.88,Brazil,417261,417877.67865473643
Kitchener,43.45,-80.5,Canada,417001,416175.00643688324
Winston-Salem,36.1029,-80.261,United States,416581,417602.57833323994
Middlesbrough,54.5804,-1.23,United Kingdom,416042,413668.0063373167
Meizhou,24.3005,116.12,China,414930,414546.99079623533
Ardabil,38.25,48.3,Iran,414603,414041.21574534464
Magnitogorsk,53.4227,58.98,Russia,413351,412843.3812686471
Gifu,35.4231,136.7628,Japan,412895,412720.4326047601
Huancayo,-12.08,-75.2,Peru,412733,413497.4229062798
Nha Trang,12.25,109.17,Vietnam,411556,411976.836502689
Maturín,9.75,-63.17,Venezuela,410972,409789.7120258657
Xuanhua,40.5944,115.0243,China,409745,408961.2087368493
Kursk,51.74,36.19,Russia,409431,410636.1679659352
Oujda,34.69,-1.91,Morocco,409391,409533.2000044012
Metz,49.1203,6.18,France,409186,409174.3871210447
Al Ayn,24.2305,55.74,United Arab Emirates,408733,408599.1809237913
Jeju,33.5101,126.5219,"Korea, South",408364,408326.325836785
Oshogbo,7.7704,4.56,Nigeria,408245,410041.2859020446
Indio,33.7346,-116.2346,United States,408097,407700.49913247745
Ipatinga,-19.4796,-42.52,Brazil,407894,407004.3638495502
Szczecin,53.4204,14.53,Poland,407811,408939.7838943705
Durham,35.9797,-78.9037,United States,407575,408834.49805258296
Syracuse,43.0409,-76.1438,United States,407259,407784.5932027765
Chattanooga,35.0657,-85.2488,United States,407182,407125.50151112594
Murcia,37.98,-1.13,Spain,406807,406443.6909907663
Kitwe,-12.81,28.22,Zambia,404901,404499.15196379833
Tanta,30.7904,31,Egypt,404901,405195.5149664459
Lancaster,40.0421,-76.3012,United States,404525,404866.6627573902
Zanzibar,-6.16,39.2,Tanzania,403658,402489.4107837137
Taubaté,-23.0195,-45.56,Brazil,403560,404644.4144038395
Yining,43.9,81.35,China,403489,404941.35888017365
Bissau,11.865,-15.5984,Guinea-Bissau,403339,401948.5617686091
Pasay City,14.5504,121,Philippines,403064,402697.8789884856
Spokane,47.6671,-117.433,United States,403043,403081.20147764357
Mbale,1.0904,34.17,Uganda,402368,401533.1285676415
Palm Coast,29.5389,-81.246,United States,401757,401567.8200943778
Kassala,15.46,36.39,Sudan,401477,400747.5313850814
Sunchon,39.4236,125.939,"Korea, North",400629,400732.7904878759
Tver,56.86,35.89,Russia,400212,400534.7754771937
Surgut,61.2599,73.425,Russia,400000,400735.1110834553
Jingmen,31.0304,112.1,China,400000,400635.36244413134
Sikar,27.6104,75.14,India,400000,399404.9710481038
Tumkur,13.33,77.1,India,399606,399765.3072720795
Gómez Palacio,25.5701,-103.5,Mexico,399328,399643.6956139195
Buraydah,26.3664,43.9628,Saudi Arabia,398581,399261.71250920737
Khmelnytskyy,49.4249,27.0015,Ukraine,398346,397773.1486318929
Eindhoven,51.43,5.5,Netherlands,398053,396713.64333106834
Chiang Mai,18.8,98.98,Thailand,397211,395580.72039455397
Piura,-5.21,-80.63,Peru,396932,397176.48811861186
Horlivka,48.2996,38.0547,Ukraine,396885,397499.0102199403
Arlington,32.6998,-97.125,United States,396394,398849.19391233125
Ndola,-12.9999,28.65,Zambia,396339,396653.6514365919
Yuxi,24.38,102.57,China,396325,396834.2182693937
Bonita Springs,26.3559,-81.7861,United States,396220,396200.8421796827
Poughkeepsie,41.6949,-73.921,United States,396041,396264.5756921074
Kisumu,-0.09,34.75,Kenya,395615,395604.65044233034
Stockton,37.9766,-121.3112,United States,394467,395190.3870512895
Kollam,8.9004,76.57,India,394163,394734.76674604794
Tallinn,59.4339,24.728,Estonia,394024,395453.3040476057
Wellington,-41.3,174.7833,New Zealand,393400,392609.4945521416
El Obeid,13.1833,30.2167,Sudan,393311,392560.80955670413
Niyala,12.06,24.89,Sudan,392373,393137.4852446829
Sandakan,5.843,118.108,Malaysia,392288,391696.27447053656
Ahmednagar,19.1104,74.75,India,391760,392889.06830636086
Osh,40.5404,72.79,Kyrgyzstan,391277,392089.86345708073
Stoke,53.0004,-2.18,United Kingdom,390801,390372.6071960002
Bhilwara,25.3504,74.635,India,389911,391299.1662227802
Oxnard,34.1962,-119.1819,United States,389792,389647.9528452138
Comilla,23.4704,91.17,Bangladesh,389411,391048.7978145728
Augusta,33.3645,-82.0708,United States,389383,389644.21557719767
Scranton,41.4044,-75.6649,United States,389022,389330.6865517235
Samut Prakan,13.6069,100.6115,Thailand,388920,388003.7761043177
Grenoble,45.1804,5.72,France,388574,389682.6369137449
Nampula,-15.136,39.293,Mozambique,388526,389491.76534420595
Nizamabad,18.6704,78.1,India,388505,388758.78086636483
Granada‎,37.165,-3.585,Spain,388290,389186.94505938963
Brno,49.2004,16.61,Czechia,388277,389332.5265625539
Coventry,52.4204,-1.5,United Kingdom,388271,388680.4406353725
Alajuela,10.02,-84.23,Costa Rica,387743,387618.5219166499
Iloilo,10.705,122.545,Philippines,387681,388041.7615988673
Campos,-21.75,-41.32,Brazil,387417,387127.5734055102
Resistencia,-27.46,-58.99,Argentina,387158,386751.04580324463
Baicheng,45.62,122.82,China,386861,386757.97735733056
Qarshi,38.8704,65.8,Uzbekistan,386361,386807.2866184819
Misratah,32.38,15.1,Libya,386120,387341.1507836919
Hail,27.5236,41.7001,Saudi Arabia,385257,385748.0345394304
Boise,43.6006,-116.2316,United States,385218,386828.2404065947
Béjaïa,36.7604,5.07,Algeria,384937,386229.0382593252
Southampton,50.9,-1.4,United Kingdom,384417,383807.23177624453
Celaya,20.53,-100.8,Mexico,383697,384540.9133106942
Pasto,1.2136,-77.2811,Colombia,382236,382055.269624722
Modesto,37.6374,-121.0028,United States,381398,382466.67528035055
Caxias do Sul,-29.18,-51.17,Brazil,381270,382430.4657520335
Nizhny Tagil,57.92,59.975,Russia,381116,381975.1676681964
Xichang,27.88,102.3,China,379993,380716.989249961
Dezhou,37.4504,116.3,China,379555,379716.0375587664
Vigo,42.22,-8.73,Spain,378952,377032.0098561509
Las Palmas,28.1,-15.43,Spain,378495,378575.4671625785
Parbhani,19.2704,76.76,India,378326,379956.61051226506
Karlsruhe,49,8.4,Germany,377487,377620.3025799239
Zhoukou,33.6304,114.63,China,377061,378047.8469908186
Makiyivka,48.0297,37.9746,Ukraine,376610,377278.6825999459
Putian,25.4303,119.02,China,376558,376603.5272101367
Kahramanmaraş,37.61,36.945,Turkey,376045,375330.0905978963
Manizales,5.06,-75.52,Colombia,375848,376917.892218119
Palma,39.5743,2.6542,Spain,375773,375144.2736298907
Manukau,-37,174.885,New Zealand,375600,375854.0766082289
Shillong,25.5705,91.88,India,375527,375417.9959181781
Khorramabad,33.4804,48.35,Iran,375198,372828.020562327
Villavicencio,4.1533,-73.635,Colombia,374763,374798.707392479
São José do Rio Preto,-20.7996,-49.39,Brazil,374699,374972.38498121715
Kaunas,54.9504,23.88,Lithuania,374643,373468.8347253119
Latur,18.4004,76.57,India,374394,374157.15463508706
Kissimmee,28.3042,-81.4164,United States,374231,374175.06872074376
Youngstown,41.0993,-80.6463,United States,373728,373799.0776134026
Shache,38.4261,77.25,China,373492,373132.9405828117
Seremban,2.7105,101.94,Malaysia,372917,373725.9768197722
Denizli,37.7704,29.08,Turkey,372344,372182.8108104558
Van,38.4954,43.4,Turkey,371713,372620.0423926663
La Coruña,43.33,-8.42,Spain,370610,371876.2006244015
Abadan,30.3307,48.2797,Iran,370180,370612.5527688259
Quzhou,28.9704,118.87,China,370000,370107.7763298044
Rajapalaiyam,9.4204,77.58,India,369991,370806.7806304848
Reading,51.47,-0.98,United Kingdom,369804,369909.39346138213
Najran,17.5065,44.1316,Saudi Arabia,369609,369046.45550813875
Mahilyow,53.8985,30.3247,Belarus,369200,368892.20097637275
Al-Qatif,26.5196,50.0115,Saudi Arabia,368892,368453.097119406
Valletta,35.8997,14.5147,Malta,368250,367271.7428601325
Mazatlán,23.2211,-106.42,Mexico,368204,369205.12635518005
Longyan,25.1804,117.03,China,367896,368925.04782202677
Aurora,39.7084,-104.7274,United States,366623,366581.21460251743
Bydgoszcz,53.1204,18.01,Poland,366452,367054.78868493286
Kuantan,3.83,103.32,Malaysia,366229,366219.3583121399
Gorontalo,0.55,123.07,Indonesia,365497,364582.30644991447
Nakuru,-0.28,36.07,Kenya,364727,365538.9783876038
Vladikavkaz,43.0504,44.67,Russia,364630,364449.3196303818
Larkana,27.5618,68.2068,Pakistan,364033,365192.54610092286
Christchurch,-43.535,172.63,New Zealand,363200,362770.04310789803
Stavropol,45.05,41.98,Russia,363064,362032.35340850125
Sanya,18.2591,109.504,China,362689,361782.84493427473
Bhagalpur,25.23,86.98,India,361548,361950.42997336935
Maseru,-29.3167,27.4833,Lesotho,361324,362780.58281890536
Sheikhu Pura,31.72,73.99,Pakistan,361303,362324.30629053724
Cusco,-13.525,-71.9722,Peru,361182,360485.7910923145
Tamale,9.4004,-0.84,Ghana,360579,361261.065383157
Ulan Ude,51.825,107.625,Russia,360278,360780.4458247274
Bobo Dioulasso,11.18,-4.29,Burkina Faso,360106,360954.46685605723
Lublin,51.2504,22.5727,Poland,360044,359574.9602841251
Halifax,44.65,-63.6,Canada,359111,359612.9638178096
Augsburg,48.35,10.9,Germany,358989,357615.70343272854
Sungai Petani,5.6497,100.4793,Malaysia,358499,359251.61755642365
Ad Diwaniyah,31.9889,44.924,Iraq,358408,359341.3691880002
Taraz,42.9,71.365,Kazakhstan,358153,357945.21351603983
Toulon,43.1342,5.9188,France,357693,358359.4780940336
Zanjan,36.67,48.5,Iran,357471,357496.0098635528
San Sebastián,43.3204,-1.98,Spain,357468,359254.2480510091
Iwaki,37.0553,140.89,Japan,357309,357619.3099576409
Encarnación,-27.3472,-55.8739,Paraguay,357119,355522.1037801143
Posadas,-27.3578,-55.8851,Argentina,357119,357733.6149331643
Fuyu,45.1804,124.82,China,356905,358147.38233516796
Cà Mau,9.1774,105.15,Vietnam,356636,356653.40028105467
Asahikawa,43.755,142.38,Japan,356612,356003.70948550774
Mirput Khas,25.5318,69.0118,Pakistan,356435,356373.17029742117
Archangel,64.575,40.545,Russia,356051,354091.1927098176
Wafangdian,39.6259,121.996,China,355844,356205.93818283983
Ambon,-3.7167,128.2,Indonesia,355596,354265.28415977885
Orizaba,18.85,-97.13,Mexico,355333,355714.3047096255
Longxi,35.0476,104.6394,China,355037,355760.19380468404
Santiago del Estero,-27.7833,-64.2667,Argentina,354692,354896.68433509767
Mito,36.3704,140.48,Japan,353892,352477.9981004562
Safi,32.32,-9.24,Morocco,353476,354491.99697300914
Eldoret,0.52,35.27,Kenya,353381,351960.44383232004
Rahim Yar Khan,28.4202,70.2952,Pakistan,353203,352557.3015173247
Neiva,2.931,-75.3302,Colombia,352855,352578.3584691957
Anaheim,33.839,-117.8572,United States,352497,351931.290176444
Vinnytsya,49.2254,28.4816,Ukraine,352115,353470.3291161094
Hualien,23.9837,121.6,Taiwan,350468,349596.99037872715
Kuala Terengganu,5.3304,103.12,Malaysia,350210,351147.7594163311
Qoqon,40.5404,70.94,Uzbekistan,350000,350042.9386426085
Long Xuyen,10.3804,105.42,Vietnam,350000,348560.69214330346
Việt Trì,21.3304,105.43,Vietnam,350000,349264.3946422763
Yumen,39.83,97.73,China,350000,350840.20342102787
Haarlem,52.3804,4.63,Netherlands,349957,349892.6312313438
Buon Me Thuot,12.667,108.05,Vietnam,349945,349139.5323018161
Chimbote,-9.07,-78.57,Peru,349846,348938.674823429
Muzaffarnagar,29.485,77.695,India,349706,350193.53994798556
Nuevo Laredo,27.5,-99.55,Mexico,349550,348421.4583387625
Lancaster,34.6934,-118.1753,United States,349218,347850.1313455004
Sanandaj,35.3,47.02,Iran,349176,349806.9604119959
Linz,48.3192,14.2888,Austria,349161,349807.3183235121
Camagüey,21.3808,-77.9169,Cuba,347562,345385.5450760869
Verona,45.4404,10.99,Italy,347459,348441.3555741211
Victorville,34.5277,-117.3537,United States,346948,346701.12167240586
London,42.97,-81.25,Canada,346765,346256.71052631806
Astana,51.1811,71.4278,Kazakhstan,345604,346147.279273845
Merida,8.4,-71.13,Venezuela,345489,344763.2612548561
Charleroi,50.4204,4.45,Belgium,345367,344908.6865610113
Belgorod,50.63,36.5999,Russia,345289,346604.7683803973
Kosti,13.17,32.66,Sudan,345068,344665.09922419727
Al Amarah,31.8416,47.1512,Iraq,345007,344195.84172052046
Maebashi,36.3927,139.0727,Japan,344871,344687.3022823375
Pensacola,30.4427,-87.1886,United States,344400,343754.31800659304
Kurgan,55.46,65.345,Russia,343129,341977.4282420189
Kohat,33.6027,71.4327,Pakistan,343027,343369.27503985376
Vitsyebsk,55.1887,30.1853,Belarus,342700,343684.61309017753
Piracicaba,-22.71,-47.64,Brazil,342209,340408.41125560104
Yeosu,34.7368,127.7458,"Korea, South",341994,340131.1198686101
Fayetteville,36.0713,-94.166,United States,341890,341794.1123773559
Corpus Christi,27.7173,-97.3822,United States,341435,341824.9842635114
Jhang,31.2804,72.325,Pakistan,341210,339821.5390012933
Pematangsiantar,2.9614,99.0615,Indonesia,341200,340971.06180654094
Arusha,-3.36,36.67,Tanzania,341136,342276.59197944467
Corrientes,-27.49,-58.81,Argentina,340823,341795.12830240146
Kōriyama,37.41,140.38,Japan,340560,339799.65112035576
Plovdiv,42.154,24.754,Bulgaria,340494,339846.4571726969
Chitungwiza,-18,31.1,Zimbabwe,340360,340203.47340270306
Aksu,41.15,80.25,China,340020,341722.43219040456
Yaan,29.9804,103.08,China,340000,340772.3588934845
Tieling,42.3004,123.82,China,340000,339525.8747583694
Irapuato,20.67,-101.5,Mexico,339554,337427.62424460216
Kaluga,54.5204,36.27,Russia,338978,337842.01524871244
East London,-32.97,27.87,South Africa,338627,339430.76246504457
Jackson,32.3163,-90.2124,United States,338185,337840.37819149776
Kaesong,37.964,126.5644,"Korea, North",338155,336297.27289111575
Ciudad Bolívar,8.1,-63.6,Venezuela,338000,337764.60616117145
Kawagoe,35.9177,139.4911,Japan,337931,339007.5292897835
Lalitpur,27.6666,85.3333,Nepal,337785,337024.49508564326
Phan Thiet,10.9337,108.1001,Vietnam,336846,338849.55054573674
Alor Setar,6.1133,100.3729,Malaysia,336475,336528.0352457006
Santa Cruz de Tenerife,28.47,-16.25,Spain,336061,335369.0552402337
Gijón,43.53,-5.67,Spain,335972,336191.0629876225
Greensboro,36.0956,-79.8269,United States,335588,335452.7157122115
Kōchi,33.5624,133.5375,Japan,335570,337296.77400592156
Flint,43.0236,-83.6922,United States,335354,336062.16337293916
Bauru,-22.33,-49.08,Brazil,335024,336163.7293587263
Nakhon Ratchasima,15,102.1,Thailand,334984,333882.3000953433
Orel,52.97,36.07,Russia,334552,334661.4251250862
Takamatsu,34.3447,134.0448,Japan,334223,334970.9220688878
Santa Ana,33.7366,-117.8819,United States,334136,334742.8745903684
Muzaffarpur,26.1204,85.3799,India,333200,332414.11800656037
Beni,0.4904,29.45,Congo (Kinshasa),332903,333679.29409886705
Toyama,36.7,137.23,Japan,332812,333161.70986738976
Hangu,39.232,117.777,China,332793,334390.9184764372
Medani,14.4,33.52,Sudan,332714,332969.20550144464
Montes Claros,-16.72,-43.86,Brazil,332379,332541.26798971393
Bielefeld,52.03,8.53,Germany,331906,330906.649656974
Bujumbura,-3.3761,29.36,Burundi,331700,330303.6381692714
Heyuan,23.7304,114.68,China,330961,331725.644695782
Mathura,27.5,77.67,India,330511,329758.20663566253
Mymensingh,24.7504,90.38,Bangladesh,330126,330742.60042123083
Baishan,41.9,126.43,China,330000,330310.50829281064
Patiala,30.3204,76.385,India,329224,330006.024357535
Wonsan,39.1605,127.4308,"Korea, North",329207,329673.4305270298
Pavlodar,52.3,76.95,Kazakhstan,329002,330105.86753150215
Fort Wayne,41.0885,-85.1436,United States,328564,328275.2596626079
Maringá,-23.4095,-51.93,Brazil,328335,329523.6138304501
Sagar,23.8504,78.75,India,328240,329645.85451344884
Canberra,-35.283,149.129,Australia,327700,328116.16564930324
Sochi,43.59,39.73,Russia,327608,327402.67277178384
Montpellier,43.6104,3.87,France,327254,327390.927480368
Itajaí,-26.8996,-48.68,Brazil,327126,326789.57400096883
Sousse,35.83,10.625,Tunisia,327004,326630.3545761262
Ann Arbor,42.2755,-83.7312,United States,326288,326788.0088584624
Iași,47.1683,27.5749,Romania,325914,324561.723658777
Brahmapur,19.32,84.8,India,324726,325771.5253414728
Birjand,32.88,59.2199,Iran,324703,324722.61250958836
Fayetteville,35.0846,-78.9776,United States,324700,324727.4322172007
Yoshkar Ola,56.6354,47.8749,Russia,324406,325278.4921145872
Miyazaki,31.9182,131.4184,Japan,324384,324883.7368656215
Volzhskiy,48.7948,44.7744,Russia,323293,321799.2188977351
Chenzhou,25.8004,113.0301,China,322997,325105.0644100474
Valladolid,41.65,-4.75,Spain,322304,322830.53148112027
Santa Rosa,38.4465,-122.706,United States,321908,322825.4998955621
Al Kut,32.4907,45.8304,Iraq,321521,322048.37857347255
Córdoba,37.88,-4.77,Spain,321376,321214.28965761256
Smolensk,54.7827,32.0473,Russia,320991,321749.54322936543
Lansing,42.7142,-84.56,United States,320928,322898.5305411529
Ciudad del Este,-25.5167,-54.6161,Paraguay,320872,321472.60491057247
Pelotas,-31.75,-52.33,Brazil,320674,319973.3126028568
Podolsk,55.3804,37.5299,Russia,320635,322033.88351948216
Kherson,46.6325,32.6007,Ukraine,320477,320591.4796902376
Shahjahanpur,27.8804,79.905,India,320434,320261.2907488139
Itu,-23.26,-47.3,Brazil,320170,319967.76091331855
Legazpi,13.17,123.75,Philippines,320081,317157.0803438326
Akita,39.71,140.09,Japan,320069,319874.0465825471
Maroua,10.5956,14.3247,Cameroon,319941,319537.51339000405
Anápolis,-16.3196,-48.96,Brazil,319587,320257.610386708
Pachuca,20.1704,-98.73,Mexico,319581,318404.1517037445
Bukhara,39.78,64.43,Uzbekistan,319476,319545.9531379419
Murmansk,68.97,33.1,Russia,319263,317050.608666563
Windsor,42.3333,-83.0333,Canada,319246,320329.09167120856
Holguín,20.8872,-76.2631,Cuba,319102,318647.0148890754
Oskemen,49.99,82.6149,Kazakhstan,319067,320353.686275309
Tepic,21.5054,-104.88,Mexico,318781,316451.36668840353
Vladimir,56.13,40.4099,Russia,318648,319288.8860596246
Mobile,30.6783,-88.1162,United States,318084,318700.33427236724
Hat Yai,6.9964,100.4714,Thailand,317954,317267.7610507416
Poltava,49.574,34.5703,Ukraine,317847,317172.8463037489
New Delhi,28.6,77.2,India,317797,317522.96564187895
Cumaná,10.45,-64.18,Venezuela,317603,315890.7962429947
Hrodna,53.6779,23.8341,Belarus,317365,316988.28328250337
Rohtak,28.9,76.58,India,317245,317430.2774014266
El Faiyum,29.31,30.84,Egypt,316772,317588.4866694434
Cluj-Napoca,46.7884,23.5984,Romania,316748,318499.8772231836
Bauchi,10.3104,9.84,Nigeria,316149,317006.28713675565
Lexington,38.0423,-84.4587,United States,315939,314667.4491863306
Alicante,38.3512,-0.4836,Spain,315863,316005.8579992091
Dezful,32.3804,48.47,Iran,315482,314700.1103720357
Maiquetía,10.6004,-66.97,Venezuela,315442,315516.7415142209
Armenia,4.5343,-75.6811,Colombia,315328,316007.79251274344
Timișoara,45.7588,21.2234,Romania,315053,314725.5559865071
Ljubljana,46.0553,14.515,Slovenia,314807,316610.3126252962
Pescara,42.4554,14.2187,Italy,314789,313885.725400049
Gdynia,54.5204,18.53,Poland,314664,313557.66244493757
Angeles,15.1451,120.5451,Philippines,314493,315179.5641437804
Ninde,26.6804,119.5301,China,314077,316328.198622253
Aswan,24.0875,32.8989,Egypt,313442,314612.2120895749
Varna,43.2156,27.8953,Bulgaria,312770,312863.61891598394
Koblenz,50.3505,7.6,Germany,312633,313254.46007261757
Cherepovets,59.1404,37.91,Russia,311850,312078.5336044973
Qurghonteppa,37.8373,68.7713,Tajikistan,311574,312796.2346339437
Semey,50.435,80.275,Kazakhstan,311353,312035.1942828828
Galați,45.4559,28.0459,Romania,311156,309369.8930369208
Brașov,45.6475,25.6072,Romania,311044,310832.67804558855
Sambalpur,21.4704,83.9701,India,310852,311944.68785671785
Pucallpa,-8.3689,-74.535,Peru,310750,311463.1461714483
Antofagasta,-23.65,-70.4,Chile,309832,311269.64183859015
Huntsville,34.6989,-86.6414,United States,309716,309193.3508352387
Santa Clarita,34.4155,-118.4992,United States,309378,309840.3243686959
Asheville,35.5706,-82.5537,United States,309250,309378.83965854504
Sapele,5.8904,5.68,Nigeria,309162,308470.10501427256
Dayr az Zawr,35.3304,40.13,Syria,309141,309217.14475087216
Chita,52.055,113.465,Russia,308500,308825.5378020759
Valledupar,10.48,-73.25,Colombia,308237,306982.0014390591
Vitória da Conquista,-14.85,-40.84,Brazil,308204,308234.28399002354
Antsirabe,-19.85,47.0333,Madagascar,307921,307486.35338467907
Naltchik,43.4981,43.6179,Russia,307866,306627.3408060538
Chernihiv,51.5049,31.3015,Ukraine,307684,305280.4595697595
Ratlam,23.3504,75.03,India,307229,307234.5388838439
Saint Paul,44.9477,-93.104,United States,306621,306962.6755581682
Ksar El Kebir,35.0204,-5.91,Morocco,306600,306646.21719646663
Tawau,4.271,117.896,Malaysia,306462,307160.8618344006
Firozabad,27.15,78.3949,India,306409,306341.6346954478
Porto Velho,-8.75,-63.9,Brazil,306180,305099.2455674294
San Salvador de Jujuy,-24.1833,-65.3,Argentina,305891,308164.7997215568
Hatay,36.2304,36.12,Turkey,305564,306106.428422085
Franca,-20.53,-47.39,Brazil,305041,307949.2593512719
Rajahmundry,17.0303,81.79,India,304804,304644.7571061947
Olongapo,14.8296,120.2828,Philippines,304388,304612.75832522335
Craiova,44.3263,23.8259,Romania,304142,304632.86737898685
Kom Ombo,24.47,32.95,Egypt,303962,303928.4638097607
Los Teques,10.42,-67.02,Venezuela,303470,302931.1764588471
Constanța,44.2027,28.61,Romania,303399,303657.4256297177
Saransk,54.1704,45.18,Russia,303394,303946.6459115957
Mengzi,23.3619,103.4061,China,303341,302361.6633428507
Ganca,40.685,46.35,Azerbaijan,303268,301385.0931146279
Fort Collins,40.5479,-105.0658,United States,303184,302999.509572334
Hakodate,41.795,140.74,Japan,302984,304526.19035769126
Antioch,37.9789,-121.7957,United States,302885,301505.30946505215
Chemnitz,50.83,12.92,Germany,302643,304288.6476903953
Henderson,36.0145,-115.0362,United States,302539,302700.84973818745
Kingston upon Hull,53.7504,-0.33,United Kingdom,302296,302228.038856847
Batman,37.8904,41.14,Turkey,302074,302006.1475187597
Qena,26.1505,32.72,Egypt,302027,301497.5450636703
Barddhaman,23.2504,87.865,India,301725,302058.6688296213
Jinja,0.4404,33.1999,Uganda,301619,301841.3640185042
Gujrat,32.58,74.08,Pakistan,301506,300471.36118985276
Tambov,52.73,41.43,Russia,301482,303120.5269219245
Hami,42.827,93.515,China,300848,300579.71831008664
Brest,52.1,23.7,Belarus,300715,300817.30295145995
Mardan,34.2,72.04,Pakistan,300424,299075.86921199574
Bidar,17.9229,77.5175,India,300136,300446.6398954592
Qyzylorda,44.8,65.465,Kazakhstan,300000,299796.4833171761
Rạch Giá,10.0154,105.0914,Vietnam,300000,300218.9173993412
Sóc Trăng,9.6037,105.98,Vietnam,300000,300383.72917294706
Porto-Novo,6.4833,2.6166,Benin,300000,301108.78916840564
Curepipe,-20.3162,57.5166,Mauritius,299975,300294.03690162906
Kanggye,40.9732,126.6032,"Korea, North",299514,300136.25834265753
Baqubah,33.7476,44.6573,Iraq,299479,298118.4176818832
Dumyat,31.4204,31.82,Egypt,299459,299473.2154170452
Jember,-8.1727,113.6873,Indonesia,298585,297592.96334199345
Al Mubarraz,25.4291,49.5659,Saudi Arabia,298562,296788.2254737655
Al Kharj,24.1556,47.312,Saudi Arabia,298428,297769.6580499378
Aomori,40.825,140.71,Japan,298394,298214.39558780036
Chernivtsi,48.3053,25.9216,Ukraine,298251,298673.7574883458
İskenderun,36.5804,36.17,Turkey,297943,299477.35190636583
Cherkasy,49.4347,32.0709,Ukraine,297568,299062.1210939754
Trenton,40.2237,-74.764,United States,296869,296561.71925150923
Bandar Seri Begawan,4.8833,114.9333,Brunei,296500,296198.82452724
Rampur,28.8154,79.025,India,296418,295378.0660821759
Morioka,39.72,141.13,Japan,295172,295019.2783548714
Ar Ramadi,33.42,43.3,Iraq,295121,293262.1553718866
Port-of-Spain,10.652,-61.517,Trinidad And Tobago,294934,294553.43420758314
Vologda,59.21,39.92,Russia,294889,294849.0275312075
Sumy,50.9243,34.7809,Ukraine,294456,296093.42529975704
Swansea,51.63,-3.95,United Kingdom,294339,296235.19741184067
Fukushima,37.74,140.47,Japan,294237,293831.36390303954
Blumenau,-26.92,-49.09,Brazil,293949,294749.8396579037
Thiès,14.8104,-16.93,Senegal,293001,293557.9770937072
Kakinada,16.9675,82.2375,India,292923,293624.9196044039
Panipat,29.4004,76.97,India,292808,292720.8331074852
Makurdi,7.73,8.53,Nigeria,292645,293966.70326318004
Ponta Grossa,-25.09,-50.16,Brazil,292177,292594.04114989605
Minna,9.62,6.55,Nigeria,291905,291526.7424095708
Białystok,53.1504,23.17,Poland,291855,293472.5780765091
Mbeya,-8.89,33.43,Tanzania,291649,292293.92326793383
Cagliari,39.2224,9.104,Italy,291511,290420.9240005679
Lakeland,28.0557,-81.9543,United States,291281,291569.60027386656
Khammam,17.2804,80.1601,India,290839,292724.81782261416
Bafoussam,5.4904,10.4099,Cameroon,290768,291531.2897729236
Kasur,31.1254,74.455,Pakistan,290643,289512.76934507606
Hulan Ergi,47.21,123.61,China,289999,290127.33256015123
Kassel,51.3,9.5,Germany,289924,291680.4516553841
Limeira,-22.5495,-47.4,Brazil,289665,290226.7512475934
Victoria,48.4333,-123.35,Canada,289625,291084.7862501218
Bhuj,23.2504,69.81,India,289429,290185.44166713895
Huizhou,23.08,114.4,China,289201,287103.2074026511
Karimnagar,18.4604,79.11,India,288251,290248.92252032715
Sinuiju,40.0859,124.4213,"Korea, North",288112,287924.6404413915
Talcahuano,-36.7167,-73.1167,Chile,288074,288063.97752175975
Ciudad Obregon,27.4666,-109.925,Mexico,288002,286673.41328420566
Shreveport,32.4659,-93.7959,United States,287432,288471.36631587514
Davenport,41.5563,-90.6052,United States,287413,288454.83651700633
Coatzacoalcos,18.1204,-94.42,Mexico,287285,286942.0066656472
Springfield,37.1943,-93.2915,United States,287222,288642.77087549213
Tirupati,13.6504,79.42,India,287035,288033.8364800756
Cuenca,-2.9,-79,Ecuador,286878,286992.21788457467
Butembo,0.13,29.28,Congo (Kinshasa),286403,286498.5039624095
Sekondi,4.9433,-1.704,Ghana,286248,286122.83542154357
Plano,33.0502,-96.7487,United States,286143,284715.83560789697
Petrópolis,-22.5095,-43.2,Brazil,286071,285365.6439805566
Hospet,15.2804,76.375,India,286007,287721.5441751108
Rangpur,25.75,89.28,Bangladesh,285564,286527.95261002
Rockford,42.2598,-89.0641,United States,285562,285792.5346228399
Newark,40.7245,-74.1725,United States,285154,284458.21374487376
Lincoln,40.8098,-96.6802,United States,285118,285933.06184952846
Zagazig,30.5833,31.5167,Egypt,285097,282985.0544652421
Mandya,12.5704,76.92,India,285034,284108.3413116706
Round Lake Beach,42.3791,-88.0811,United States,284607,283811.0410161436
Bago,17.32,96.515,Burma,284318,284918.5576280914
Barinas,8.6,-70.25,Venezuela,284289,284517.51882103266
Port Moresby,-9.4647,147.1925,Papua New Guinea,283733,284301.763526727
Iksan,35.941,126.9454,"Korea, South",283501,282341.5697523205
Alwar,27.5454,76.6049,India,283228,283534.6990772027
Cadiz,10.9587,123.3086,Philippines,283157,284704.480876238
Cádiz,36.535,-6.225,Spain,283157,281166.33490854525
Aizawl,23.7104,92.72,India,283021,281810.82318906166
Kupang,-10.1787,123.583,Indonesia,282396,282320.3535082563
Tongchuan,35.08,109.03,China,282258,281496.3143161899
Zhytomyr,50.2456,28.6622,Ukraine,282192,283754.5042046582
Jining,41.03,113.08,China,281716,283442.96963606955
Bahía Blanca,-38.74,-62.265,Argentina,281536,282238.9227188311
Cap-Haïtien,19.7592,-72.2125,Haiti,281487,281240.88937780424
Ambato,-1.2696,-78.62,Ecuador,281425,281571.53369127784
South Bend,41.6771,-86.2692,United States,281100,279328.415460161
Gorgan,36.8303,54.48,Iran,281023,281466.51813276444
Batna,35.57,6.17,Algeria,280798,281632.74475925055
Tacna,-18,-70.25,Peru,280098,277159.4720015499
Savannah,32.0282,-81.1786,United States,280082,279079.18871100026
Tacloban,11.2504,125,Philippines,280006,280686.4757271511
Xinzhou,38.4104,112.72,China,279607,281395.985882858
Cotabato,7.2169,124.2484,Philippines,279519,279076.35047453427
Rize,41.0208,40.5219,Turkey,279450,279625.82552899915
Ica,-14.068,-75.7255,Peru,279420,279430.2607399023
Sumqayt,40.58,49.63,Azerbaijan,279159,280397.6658851493
Taganrog,47.23,38.92,Russia,279056,280406.30310759955
Kaolack,14.15,-16.1,Senegal,277812,276655.0734927135
Kostroma,57.77,40.94,Russia,277656,278406.7334692426
Irvine,33.6772,-117.7738,United States,277453,276462.9168628432
Owo,7.2004,5.59,Nigeria,276574,276476.0059714252
Sukabumi,-6.9096,106.9,Indonesia,276414,276711.64801481686
Komsomolsk na Amure,50.555,137.02,Russia,275908,277203.9365293613
Prokopyevsk,53.9,86.71,Russia,275615,273489.2363844988
Bern,46.9167,7.467,Switzerland,275329,277387.03616226563
Montería,8.7575,-75.89,Colombia,275198,274172.66652048985
Mbandaka,0.04,18.26,Congo (Kinshasa),274996,275004.42623837624
Ciudad Victoria,23.72,-99.13,Mexico,274900,274002.1681065737
Sétif,36.18,5.4,Algeria,274744,273716.7086599082
Pamplona,42.82,-1.65,Spain,274545,275484.9400127599
Jinshi,29.6321,111.8517,China,274000,274372.82296488504
Ubon Ratchathani,15.25,104.83,Thailand,273893,274948.90372461826
Crato,-7.4639,-63.04,Brazil,273883,272874.9301680286
Crato,-7.2296,-39.42,Brazil,273883,273771.59543258155
Guantánamo,20.1453,-75.2061,Cuba,272801,273361.3103174813
Blackpool,53.8304,-3.05,United Kingdom,272792,272543.80043992377
Majene,-3.5336,118.966,Indonesia,272377,273434.1115561174
Yamagata,38.2705,140.32,Japan,272209,271410.21177978005
Pakalongan,-6.8796,109.67,Indonesia,272000,272117.6444293334
Elâzığ,38.68,39.23,Turkey,271492,270147.88000190695
Sari,36.5504,53.1,Iran,271467,271265.6522581956
Canton,40.8076,-81.3677,United States,271184,272659.34662032203
Tasikmalaya,-7.3254,108.2147,Indonesia,271143,271798.5801414811
Bijapur,16.8354,75.71,India,271064,271669.51136703877
Venice,45.4387,12.335,Italy,270816,269686.4196972126
Jersey City,40.7161,-74.0682,United States,270753,272118.270737862
Chula Vista,32.6281,-117.0145,United States,270471,269023.47221087693
Gombe,10.2904,11.17,Nigeria,270366,270532.2164966882
Münster,51.9704,7.62,Germany,270184,269924.99988871475
Thohoyandou,-22.95,30.48,South Africa,269707,269546.3141323537
Kiel,54.3304,10.13,Germany,269427,267778.4096075252
Malmö,55.5833,13.0333,Sweden,269349,270734.0325158124
Nancy,48.6837,6.2,France,268976,267256.1606755217
Mokpo,34.8068,126.3958,"Korea, South",268402,269393.7395866828
Windhoek,-22.57,17.0835,Namibia,268132,269129.4255769156
Tebingtinggi,3.3304,99.13,Indonesia,268043,268273.77394776366
Yanbu al Bahr,24.0943,38.0493,Saudi Arabia,267590,267726.54383069393
Eugene,44.0563,-123.1173,United States,267568,268543.42148127255
Tshikapa,-6.41,20.77,Congo (Kinshasa),267462,269794.3456658041
Reading,40.34,-75.9266,United States,267300,266425.83503557515
Sterlitamak,53.63,55.96,Russia,267231,267220.2777752555
Padangsidempuan,1.3887,99.2734,Indonesia,266882,266020.27322990895
Myeik,12.4541,98.6115,Burma,266720,265323.0113959907
Temuco,-38.73,-72.58,Chile,265901,266107.3091649475
Lafayette,30.2083,-92.0322,United States,265746,265727.5310863471
Lausanne,46.5304,6.65,Switzerland,265702,264565.99334007094
Saint-Étienne,45.4304,4.38,France,265684,266115.14821585815
Petrozavodsk,61.85,34.28,Russia,265025,264527.39398914727
Imphal,24.8,93.95,India,264986,266036.42690706626
Umuahia,5.532,7.486,Nigeria,264662,265496.1521880345
Uruapan,19.4204,-102.07,Mexico,264531,262386.00493862765
Georgetown,6.802,-58.167,Guyana,264350,263935.13885970967
Sivas,39.7454,37.035,Turkey,264022,264701.4833782836
Tubruq,32.08,23.96,Libya,263527,263217.85289084306
Saint Petersburg,27.793,-82.6652,United States,263255,262999.92632867367
Graz,47.0778,15.41,Austria,263234,262658.36035774875
Kindu,-2.9639,25.91,Congo (Kinshasa),262914,263816.85756377387
Lubbock,33.5643,-101.8871,United States,262505,264141.10647344135
Aqtobe,50.28,57.17,Kazakhstan,262457,261734.0733746322
Paraná,-31.7333,-60.5333,Argentina,262295,262166.714757398
Az Aubayr,30.3892,47.708,Iraq,262219,263126.72713780066
Peoria,40.752,-89.6155,United States,262010,261974.46533723042
Hotan,37.0997,79.9269,China,261730,261204.6820007974
Cabo Frio,-22.89,-42.04,Brazil,261721,261673.96543435272
Balıkesir,39.6504,27.89,Turkey,261516,261976.51719999962
Zhuanghe,39.6823,122.9619,China,261510,262156.8885596282
Sincelejo,9.2904,-75.38,Colombia,261187,260291.47454057002
Petrolina,-9.38,-40.51,Brazil,260985,260754.93366401517
Acarigua,9.5804,-69.2,Venezuela,260921,260567.12711247866
Wollongong,-34.4154,150.89,Australia,260914,260024.3578813049
Uberaba,-19.78,-47.95,Brazil,260843,261408.38904684634
Myrtle Beach,33.7096,-78.8843,United States,260487,261042.60231275592
Laredo,27.5616,-99.487,United States,260244,258494.09763720894
Adapazarı,40.8,30.415,Turkey,260109,260620.48616871994
Konibodom,40.2922,70.4272,Tajikistan,259876,259473.04657362282
Salem,44.9232,-123.0245,United States,259816,257833.79479480223
Kondoz,36.728,68.8725,Afghanistan,259809,260033.90264484982
Tampere,61.5,23.75,Finland,259279,258949.40386306343
Columbus,32.51,-84.8771,United States,259160,258938.73497543018
Popayán,2.42,-76.61,Colombia,258750,258754.3440772525
Nonthaburi,13.8337,100.4833,Thailand,258550,259440.412697801
Al Mukalla,14.5412,49.1259,Yemen,258132,257712.21396767593
Rio Branco,-9.9666,-67.8,Brazil,257642,259768.4271788812
Etawah,26.7855,79.015,India,257448,257159.8324687706
Mendefera,14.886,38.8163,Eritrea,257390,256338.6350231459
Cascavel,-24.9596,-53.46,Brazil,257172,257797.25607787835
Ondo,7.0904,4.84,Nigeria,257005,257218.0039499365
Chimoio,-19.12,33.47,Mozambique,256936,257946.89519863357
Ensenada,31.87,-116.62,Mexico,256565,257760.8157931989
Dzerzhinsk,56.2504,43.46,Russia,256537,255875.15834778605
Da Lat,11.9304,108.42,Vietnam,256019,256270.83339161077
Montgomery,32.347,-86.2663,United States,255908,255751.55724848423
Damaturu,11.749,11.966,Nigeria,255895,256830.5030231512
Raichur,16.2104,77.355,India,255240,254632.38728704653
Daloa,6.89,-6.45,Côte D’Ivoire,255168,255430.03611254803
Rivne,50.6166,26.2528,Ukraine,255106,256377.39530795935
Turpan,42.9354,89.165,China,254900,255156.9931985207
Freiburg,48.0004,7.8699,Germany,254889,254956.61043625925
Poza Rica de Hidalgo,20.5504,-97.47,Mexico,254481,253289.60245630617
Chuxiong,25.0364,101.5456,China,254370,255354.59209961118
Cirebon,-6.7333,108.5666,Indonesia,254298,256164.39460700442
Paramaribo,5.835,-55.167,Suriname,254169,254696.64971753088
Fort-de-France,14.6104,-61.08,Martinique,253995,252368.72331455586
Pathankot,32.2703,75.72,India,253987,253706.66379980184
Chandler,33.2827,-111.8516,United States,253458,253449.3558372319
Anchorage,61.1508,-149.1091,United States,253421,253398.02105451789
Tallahassee,30.455,-84.2526,United States,253030,252179.2907195423
Chirala,15.8604,80.34,India,253000,253579.51714658237
Buenaventura,3.8724,-77.0505,Colombia,252805,255322.66107430396
El Fasher,13.63,25.35,Sudan,252609,253135.98535516794
Dire Dawa,9.59,41.86,Ethiopia,252279,252571.25626791798
Suihua,46.6304,126.98,China,252245,250972.0486772418
Messina,38.2005,15.55,Italy,252026,253219.29941865127
Borujerd,33.92,48.8,Iran,251958,251262.6836093338
Linhai,28.85,121.12,China,251759,251948.73978929408
Khon Kaen,16.42,102.83,Thailand,251056,250043.36106394563
Morogoro,-6.82,37.66,Tanzania,250902,250149.4661518281
Governador Valadares,-18.87,-41.97,Brazil,250878,252180.35864283622
Sonipat,29,77.02,India,250521,249726.82773395962
Santa Clara,22.4,-79.9667,Cuba,250512,251232.39706260053
Iwo,7.63,4.18,Nigeria,250443,248758.14504923363
Concord,35.3933,-80.636,United States,250186,251468.15733793975
Jaffna,9.675,80.005,Sri Lanka,250000,250974.0083527445
Zumpango,19.8104,-99.11,Mexico,250000,250225.55715450767
Niš,43.3304,21.9,Serbia,250000,249482.07369751533
Arua,3.0204,30.9,Uganda,250000,251309.62864943896
Quảng Ngãi,15.1504,108.83,Vietnam,250000,250497.1225217701
Luzern,47.0504,8.28,Switzerland,250000,249879.70789853242
Laiyang,36.9684,120.7084,China,250000,249853.2905452304
Kashan,33.9804,51.58,Iran,250000,250383.27166066717
Como,45.81,9.08,Italy,250000,249727.8231479704
Caserta,41.06,14.3374,Italy,250000,249069.50327571196
Scottsdale,33.6872,-111.865,United States,249950,249704.3880713014
Várzea Grande,-15.65,-56.14,Brazil,249752,250421.34604689176
Kirovohrad,48.5041,32.2603,Ukraine,249454,251584.1071293534
Melun,48.5333,2.6666,France,249432,247762.05055819137
Mutare,-18.97,32.65,Zimbabwe,249365,251034.52610604692
Santa Maria,-29.6833,-53.8,Brazil,249219,250029.5322312062
Hafar al Batin,28.4337,45.9601,Saudi Arabia,249194,248146.19623885196
Los Mochis,25.79,-109,Mexico,249047,249117.54614248232
Jalal Abad,40.9429,73.0025,Kyrgyzstan,248899,248868.7085683538
Vung Tau,10.3554,107.085,Vietnam,248767,250294.67137375736
Fukui,36.0704,136.22,Japan,248707,247538.6730699602
Singkawang,0.912,108.9655,Indonesia,248012,248922.6942696247
Miskolc,48.1004,20.78,Hungary,247757,247455.29452444369
Killeen,31.0754,-97.7293,United States,247489,248286.79668572688
Plymouth,50.3854,-4.16,United Kingdom,247297,247157.60091434343
Udon Thani,17.4048,102.7893,Thailand,247231,247449.8769815254
Kattaqorgon,39.9007,66.2608,Uzbekistan,247113,247300.90336650674
Orsk,51.21,58.6273,Russia,246836,246993.86586694428
